timestamp,storename,address_original,address_normalize[0],address_normalize[1],最終更新日,url,開設者種別,開設者名,管理者名,歯科一般領域一覧,歯科口腔外科領域一覧,小児歯科領域一覧,矯正歯科領域一覧,施設状況一覧,対応可能ﾅ麻酔治療一覧,在宅医療,連携ﾉ有無,歯科医師(総数|常勤|非常勤),歯科技工士(総数|常勤|非常勤),歯科助手(総数|常勤|非常勤),歯科衛生士(総数|常勤|非常勤),前年度1日平均外来患者数,緯度,経度,page,診療科
2023-09-16,臼井歯科医院,下田市六丁目４５４－３,静岡県下田市六丁目454-3,,2023年01月25日,http://www.qq.pref.shizuoka.jp/qq22/qqport/kenmintop/detail/fk1102.php?kinouid=fk9020&sisetuid=13505,個人,臼井 美智子,臼井　美智子,"[歯科領域の一次診療, , ]",na,na,na,"[駐車場がある（契約駐車場も含む）, 院内処方, 車椅子利用者への配慮（施設内のバリアフリー化の実施）, 施設内における全面禁煙の実施, ]",na,na,na,1.0|1|－,-|-|-,-|-|-,na,5.0,34.675067,138.933684,1,[歯科、小児歯科]
2023-09-16,勝田歯科医院,下田市一丁目２０－２４,静岡県下田市一丁目20-24,,2023年01月08日,http://www.qq.pref.shizuoka.jp/qq22/qqport/kenmintop/detail/fk1102.php?kinouid=fk9020&sisetuid=13507,個人,勝田洋平,勝田　洋平,"[歯科領域の一次診療, , ]",na,na,na,"[駐車場がある（契約駐車場も含む）, 施設内における全面禁煙の実施, ]",na,na,na,1.0|1|－,-|-|-,-|-|-,－|－|－,20.0,34.675511,138.944238,1,[歯科]
2023-09-16,キクチ歯科医院,下田市河内１４９－４,静岡県下田市河内149-4,,2022年12月24日,http://www.qq.pref.shizuoka.jp/qq22/qqport/kenmintop/detail/fk1102.php?kinouid=fk9020&sisetuid=13512,個人,菊池建司,菊池建司,"[歯科領域の一次診療, , ]",na,na,na,"[駐車場がある（契約駐車場も含む）, ]",na,na,na,1.0|1|－,-|-|-,-|-|-,－|－|－,20.1,34.700231,138.939266,1,[歯科]
2023-09-16,菊池歯科医院,下田市二丁目１２－２６,静岡県下田市二丁目12-26,,2022年12月24日,http://www.qq.pref.shizuoka.jp/qq22/qqport/kenmintop/detail/fk1102.php?kinouid=fk9020&sisetuid=13503,個人,菊池 毅,菊池　毅,"[歯科領域の一次診療, , ]",na,na,na,"[駐車場がある（契約駐車場も含む）, 施設内における全面禁煙の実施, ]",na,na,"[病院との連携, 薬局との連携, 診療所との連携, ]",1.0|1|－,-|-|-,-|-|-,na,30.0,34.673622,138.942794,1,[歯科]
2023-09-16,矯正歯科兼松医院,下田市東本郷１－９－２１,静岡県下田市東本郷一丁目9-21,,2022年12月21日,http://www.qq.pref.shizuoka.jp/qq22/qqport/kenmintop/detail/fk1102.php?kinouid=fk9020&sisetuid=13523,個人,兼松 淳子,兼松　淳子,"[歯科領域の一次診療, , ]",na,na,na,"[駐車場がある（契約駐車場も含む）, 院内処方, 車椅子利用者への配慮（施設内のバリアフリー化の実施）, 施設内における全面禁煙の実施, ]",na,na,na,2.0|2|－,-|-|-,-|-|-,1.5|－|1.5,20.0,34.679872,138.946488,1,[歯科、矯正歯科]
2023-09-16,笹本歯科診療所,下田市二丁目１－２０,静岡県下田市二丁目1-20,,2023年01月06日,http://www.qq.pref.shizuoka.jp/qq22/qqport/kenmintop/detail/fk1102.php?kinouid=fk9020&sisetuid=13502,個人,笹本 牧男,笹本　牧男,"[歯科領域の一次診療, , ]",na,na,na,"[駐車場がある（契約駐車場も含む）, 施設内における全面禁煙の実施, ]",na,na,na,1.0|1|－,-|-|-,-|-|-,na,4.1,34.674317,138.942655,1,[歯科]
2023-09-16,杉山歯科診療所,下田市西本郷１－７－２０,静岡県下田市西本郷一丁目7-20,,2023年01月03日,http://www.qq.pref.shizuoka.jp/qq22/qqport/kenmintop/detail/fk1102.php?kinouid=fk9020&sisetuid=13515,個人,杉山 秀元,杉山　秀元,"[歯科領域の一次診療, , ]",na,na,na,"[駐車場がある（契約駐車場も含む）, 施設内における全面禁煙の実施, ]",na,na,na,1.0|1|－,-|-|-,-|-|-,－|－|－,13.5,34.681955,138.944544,1,[歯科]
2023-09-16,田原歯科医院,下田市五丁目１－４１,静岡県下田市五丁目1-41,,2023年01月09日,http://www.qq.pref.shizuoka.jp/qq22/qqport/kenmintop/detail/fk1102.php?kinouid=fk9020&sisetuid=13501,個人,田原 廣江,田原　廣江,"[歯科領域の一次診療, , ]",na,na,na,"[駐車場がある（契約駐車場も含む）, 施設内における全面禁煙の実施, ]",na,na,na,1.0|1|－,-|-|-,-|-|-,na,10.0,34.673122,138.938795,1,[歯科]
2023-09-16,土屋歯科医院,下田市東本郷１－５－２４,静岡県下田市東本郷一丁目5-24,,2022年12月26日,http://www.qq.pref.shizuoka.jp/qq22/qqport/kenmintop/detail/fk1102.php?kinouid=fk9020&sisetuid=13504,個人,土屋 正彦,土屋　正彦,"[歯科領域の一次診療, , ]",na,na,na,"[駐車場がある（契約駐車場も含む）, 施設内における全面禁煙の実施, ]",na,na,na,2.0|2|－,-|-|-,-|-|-,1.0|1|－,25.0,34.67905,138.945449,1,[歯科]
2023-09-16,細川歯科医院,下田市東中１０－９,静岡県下田市東中10-9,,2023年01月28日,http://www.qq.pref.shizuoka.jp/qq22/qqport/kenmintop/detail/fk1102.php?kinouid=fk9020&sisetuid=51009,個人,初治 玲奈,初治　玲奈,"[歯科領域の一次診療, , ]","[顎関節症治療, , ]",na,na,"[駐車場がある（契約駐車場も含む）, 車椅子利用者への配慮（施設内のバリアフリー化の実施）, 施設内における全面禁煙の実施, ]",na,na,"[病院との連携, 薬局との連携, 居宅介護支援事業所との連携, ]",1.0|1|－,-|-|-,-|-|-,2.0|2|－,12.0,34.688701,138.945756,1,[歯科、小児歯科]
2023-09-16,渡辺歯科医院,下田市西本郷２－１３－８,静岡県下田市西本郷二丁目13-8,,2023年03月24日,http://www.qq.pref.shizuoka.jp/qq22/qqport/kenmintop/detail/fk1102.php?kinouid=fk9020&sisetuid=13511,個人,渡辺 典,渡辺　典,na,na,na,na,"[駐車場がある（契約駐車場も含む）, 院内処方, 施設内における全面禁煙の実施, ]",na,na,na,2.0|2|－,-|-|-,-|-|-,－|－|－,14.0,34.684844,138.942155,2,[歯科]
2023-09-16,雲野歯科クリニック,賀茂郡東伊豆町稲取７１５,静岡県賀茂郡東伊豆町稲取715,,2023年03月29日,http://www.qq.pref.shizuoka.jp/qq22/qqport/kenmintop/detail/fk1102.php?kinouid=fk9020&sisetuid=13513,個人,雲野 峰雄,雲野　峰雄,na,na,na,na,"[駐車場がある（契約駐車場も含む）, 院内処方, 施設内における全面禁煙の実施, ]",na,na,na,1.0|1|－,-|-|-,-|-|-,1.0|1|－,10.0,34.769725,139.041476,2,[歯科]
2023-09-16,医療法人社団　心成会　　かとう歯科医院,賀茂郡東伊豆町稲取３９９－４,静岡県賀茂郡東伊豆町稲取399-4,,2023年03月24日,http://www.qq.pref.shizuoka.jp/qq22/qqport/kenmintop/detail/fk1102.php?kinouid=fk9020&sisetuid=13508,個人,加藤淳一,加藤淳一,"[歯科領域の一次診療, 唇顎口蓋裂の歯科矯正治療, 成人の歯科矯正治療, 顎変形症の歯科矯正治療, ]","[顎関節症治療, 顎変形症治療, ]",na,na,"[駐車場がある（契約駐車場も含む）, 院内処方, 聴覚障害者への配慮（施設内の情報の表示）, 車椅子利用者への配慮（施設内のバリアフリー化の実施）, 施設内における全面禁煙の実施, ]",na,na,"[薬局との連携, ]",1.0|1|－,-|-|-,-|-|-,1.0|－|1.0,14.0,34.771169,139.041254,2,[歯科、矯正歯科、小児歯科]
2023-09-16,医療法人社団　川村歯科医院,賀茂郡東伊豆町奈良本２５０,静岡県賀茂郡東伊豆町奈良本250,,2023年01月15日,http://www.qq.pref.shizuoka.jp/qq22/qqport/kenmintop/detail/fk1102.php?kinouid=fk9020&sisetuid=13518,医療法人,社団 川村歯科医院,川村光弘,"[歯科領域の一次診療, 成人の歯科矯正治療, ]","[埋伏歯抜歯, 口唇、舌若しくは口腔粘膜の炎症又は外傷の治療, 顎関節症治療, , ]",na,na,"[駐車場がある（契約駐車場も含む）, 院内処方, 車椅子利用者への配慮（施設内のバリアフリー化の実施）, 施設内における全面禁煙の実施, ]",na,na,"[病院との連携, 居宅介護支援事業所との連携, 診療所との連携, ]",1.0|1|－,-|-|-,-|-|-,1.4|1|0.4,34.8,34.819415,139.061972,2,[歯科、小児歯科、矯正歯科]
2023-09-16,村松歯科医院,賀茂郡東伊豆町稲取２７８－９,静岡県賀茂郡東伊豆町稲取278-9,,2023年04月02日,http://www.qq.pref.shizuoka.jp/qq22/qqport/kenmintop/detail/fk1102.php?kinouid=fk9020&sisetuid=13519,個人,村松敏行,村松　敏行,"[歯科領域の一次診療, , ]",na,na,na,"[駐車場がある（契約駐車場も含む）, 院内処方, 施設内における全面禁煙の実施, ]",na,na,na,1.0|1|－,-|-|-,-|-|-,1.0|1|－,20.0,34.773725,139.039004,2,[歯科、小児歯科]
2023-09-16,森田歯科医院,賀茂郡東伊豆町片瀬５６４－１４,静岡県賀茂郡東伊豆町片瀬564-14,,2023年01月12日,http://www.qq.pref.shizuoka.jp/qq22/qqport/kenmintop/detail/fk1102.php?kinouid=fk9020&sisetuid=13510,個人,森田 広,森田　広,"[歯科領域の一次診療, , ]",na,na,na,"[駐車場がある（契約駐車場も含む）, 院内処方, 施設内における全面禁煙の実施, ]",na,na,na,1.0|1|－,-|-|-,-|-|-,1.0|1|－,25.5,34.804444,139.060612,2,[歯科]
2023-09-16,医療法人社団翼成会　石原歯科医院,賀茂郡河津町浜１８０－３,静岡県賀茂郡河津町浜180-3,,2022年12月22日,http://www.qq.pref.shizuoka.jp/qq22/qqport/kenmintop/detail/fk1102.php?kinouid=fk9020&sisetuid=51695,医療法人,社団 翼成会,石原　忍,"[歯科領域の一次診療, 成人の歯科矯正治療, ]","[埋伏歯抜歯, 顎関節症治療, ]",na,na,"[駐車場がある（契約駐車場も含む）, 院内処方, 聴覚障害者への配慮（施設内の情報の表示）, 車椅子利用者への配慮（施設内のバリアフリー化の実施）, 施設内における全面禁煙の実施, 医療に関する相談窓口の設置, ]",na,na,"[診療所との連携, ]",2.0|2|－,-|-|-,-|-|-,2.0|2|－,30.1,34.748027,138.998299,2,[歯科、小児歯科]
2023-09-16,庄内歯科クリニック,賀茂郡河津町浜１４６－４,静岡県賀茂郡河津町浜146-4,,2023年03月24日,http://www.qq.pref.shizuoka.jp/qq22/qqport/kenmintop/detail/fk1102.php?kinouid=fk9020&sisetuid=13517,個人,庄内 邦久,庄内　邦久,"[歯科領域の一次診療, 著しく歯科診療が困難な者, 成人の歯科矯正治療, , ]","[埋伏歯抜歯, 顎関節症治療, ]",na,na,"[駐車場がある（契約駐車場も含む）, 院内処方, 車椅子利用者への配慮（施設内のバリアフリー化の実施）, 施設内における全面禁煙の実施, ]",na,na,"[病院との連携, 薬局との連携, ]",1.0|1|－,-|-|-,-|-|-,na,20.0,34.747171,138.995092,2,[歯科]
2023-09-16,中村屋歯科医院,賀茂郡河津町田中２０７－５,静岡県賀茂郡河津町田中207-5,,2022年12月26日,http://www.qq.pref.shizuoka.jp/qq22/qqport/kenmintop/detail/fk1102.php?kinouid=fk9020&sisetuid=13531,個人,中村 清徳,中村清徳,"[歯科領域の一次診療, , ]",na,na,na,"[駐車場がある（契約駐車場も含む）, 院内処方, 施設内における全面禁煙の実施, ]",na,na,"[病院との連携, ]",1.0|1|－,-|-|-,-|-|-,1.2|1|0.2,30.2,34.756002,138.986982,2,[歯科、小児歯科]
2023-09-16,ワンズデンタルクリニック,賀茂郡河津町下佐ケ野５２－４,静岡県賀茂郡河津町下佐ｹ野52-4,,2023年02月12日,http://www.qq.pref.shizuoka.jp/qq22/qqport/kenmintop/detail/fk1102.php?kinouid=fk9020&sisetuid=51617,個人,庄内 康晴,庄内　康晴,"[歯科領域の一次診療, 成人の歯科矯正治療, ]","[埋伏歯抜歯, 顎関節症治療, ]",na,na,"[駐車場がある（契約駐車場も含む）, 施設内における全面禁煙の実施, ]",na,na,na,1.0|1|－,-|-|-,-|-|-,na,4.2,34.774816,138.9572,2,[歯科]
2023-09-16,平野歯科医院,賀茂郡南伊豆町湊３３７－２,静岡県賀茂郡南伊豆町湊337-2,,2023年01月04日,http://www.qq.pref.shizuoka.jp/qq22/qqport/kenmintop/detail/fk1102.php?kinouid=fk9020&sisetuid=13516,個人,平野 信之,平野　信之,"[歯科領域の一次診療, , ]",na,na,na,"[駐車場がある（契約駐車場も含む）, 院内処方, 施設内における全面禁煙の実施, ]",na,na,na,1.0|1|－,-|-|-,-|-|-,1.0|1|－,23.0,34.648735,138.880662,3,[歯科]
2023-09-16,近藤歯科医院,賀茂郡松崎町松崎３５４,静岡県賀茂郡松崎町松崎354,,2023年01月25日,http://www.qq.pref.shizuoka.jp/qq22/qqport/kenmintop/detail/fk1102.php?kinouid=fk9020&sisetuid=13520,個人,佐藤 伸匡,佐藤　伸匡,na,na,na,na,"[駐車場がある（契約駐車場も含む）, 院内処方, 施設内における全面禁煙の実施, ]",na,na,na,1.0|1|－,-|-|-,-|-|-,1.0|1|－,12.8,34.753583,138.777971,3,[歯科]
2023-09-16,田口歯科医院,賀茂郡松崎町江奈２１４－８,静岡県賀茂郡松崎町江奈214-8,,2022年12月21日,http://www.qq.pref.shizuoka.jp/qq22/qqport/kenmintop/detail/fk1102.php?kinouid=fk9020&sisetuid=52067,個人,黒木 俊一,黒木　俊一,"[歯科領域の一次診療, , ]",na,na,na,"[駐車場がある（契約駐車場も含む）, 院内処方, 施設内における全面禁煙の実施, ]",na,na,na,1.0|1|－,-|-|-,-|-|-,1.0|1|－,9.9,34.756731,138.778437,3,[歯科]
2023-09-16,中江歯科医院,賀茂郡松崎町松崎３６７,静岡県賀茂郡松崎町松崎367,,2023年01月14日,http://www.qq.pref.shizuoka.jp/qq22/qqport/kenmintop/detail/fk1102.php?kinouid=fk9020&sisetuid=13534,個人,中江 希望,中江　希望,"[歯科領域の一次診療, , ]","[埋伏歯抜歯, 顎関節症治療, ]",na,na,"[駐車場がある（契約駐車場も含む）, 視覚障害者への配慮（音声による情報の伝達）, 聴覚障害者への配慮（施設内の情報の表示）, 車椅子利用者への配慮（施設内のバリアフリー化の実施）, 施設内における全面禁煙の実施, ]",na,na,"[病院との連携, 居宅介護支援事業所との連携, 診療所との連携, 薬局との連携, ]",1.5|1|0.5,-|-|-,-|-|-,1.5|1|0.5,18.9,34.754555,138.777888,3,[歯科]
2023-09-16,松崎歯科診療所,賀茂郡松崎町伏倉５２０－３,静岡県賀茂郡松崎町伏倉520-3,,2023年01月03日,http://www.qq.pref.shizuoka.jp/qq22/qqport/kenmintop/detail/fk1102.php?kinouid=fk9020&sisetuid=13532,個人,清水高子,清水　高子,"[歯科領域の一次診療, , ]",na,na,na,"[駐車場がある（契約駐車場も含む）, 車椅子利用者への配慮（施設内のバリアフリー化の実施）, 施設内における全面禁煙の実施, 医療に関する相談窓口の設置, ]",na,na,na,1.0|1|－,-|-|-,-|-|-,na,2.0,34.750344,138.794025,3,[歯科]
2023-09-16,渡部歯科医院,賀茂郡松崎町江奈２５２－９,静岡県賀茂郡松崎町江奈252-9,,2022年12月21日,http://www.qq.pref.shizuoka.jp/qq22/qqport/kenmintop/detail/fk1102.php?kinouid=fk9020&sisetuid=13535,個人,渡部 喜一郎,渡部　喜一郎,"[歯科領域の一次診療, , ]",na,na,na,"[駐車場がある（契約駐車場も含む）, 院内処方, ]",na,na,na,1.0|1|－,-|-|-,-|-|-,na,14.5,34.755916,138.781248,3,[歯科]
2023-09-16,Ｆデンタルクリニック,賀茂郡西伊豆町宇久須４１０－１,静岡県賀茂郡西伊豆町宇久須410-1,,2023年05月02日,http://www.qq.pref.shizuoka.jp/qq22/qqport/kenmintop/detail/fk1102.php?kinouid=fk9020&sisetuid=13528,個人,藤井  良二,藤井　　良二,"[歯科領域の一次診療, 著しく歯科診療が困難な者, ]","[埋伏歯抜歯, 顎関節症治療, ]",na,na,"[駐車場がある（契約駐車場も含む）, 院内処方, 車椅子利用者への配慮（施設内のバリアフリー化の実施）, 車椅子対応トイレ, 施設内における全面禁煙の実施, ]",na,na,"[病院との連携, 薬局との連携, 診療所との連携, ]",1.0|1|－,-|-|-,-|-|-,－|－|－,18.0,34.847601,138.776189,3,[歯科]
2023-09-16,田子歯科診療所,賀茂郡西伊豆町田子１０１０－１６,静岡県賀茂郡西伊豆町田子1010-16,,2023年01月27日,http://www.qq.pref.shizuoka.jp/qq22/qqport/kenmintop/detail/fk1102.php?kinouid=fk9020&sisetuid=13530,個人,山本 治文,山本　治文,"[歯科領域の一次診療, , ]",na,na,na,"[駐車場がある（契約駐車場も含む）, 院内処方, 視覚障害者への配慮（音声による情報の伝達）, 聴覚障害者への配慮（施設内の情報の表示）, 車椅子利用者への配慮（施設内のバリアフリー化の実施）, 施設内における全面禁煙の実施, ]",na,na,"[診療所との連携, ]",1.0|1|－,-|-|-,-|-|-,1.0|1|－,20.0,34.80914,138.769576,3,[歯科、小児歯科]
2023-09-16,藤井歯科医院,賀茂郡西伊豆町宇久須８３４－３,静岡県賀茂郡西伊豆町宇久須834-3,,2022年06月20日,http://www.qq.pref.shizuoka.jp/qq22/qqport/kenmintop/detail/fk1102.php?kinouid=fk9020&sisetuid=13536,個人,藤井 規之,藤井　規之,"[歯科領域の一次診療, 著しく歯科診療が困難な者, ]","[埋伏歯抜歯, 顎関節症治療, ]",na,na,"[駐車場がある（契約駐車場も含む）, 院内処方, 視覚障害者への配慮（音声による情報の伝達）, 聴覚障害者への配慮（施設内の情報の表示）, 車椅子利用者への配慮（施設内のバリアフリー化の実施）, 施設内における全面禁煙の実施, 医療に関する相談窓口の設置, ]",na,na,"[病院との連携, 居宅介護支援事業所との連携, 診療所との連携, 薬局との連携, 訪問看護ステーションとの連携, ]",1.0|1|－,-|-|-,-|-|-,1.9|1|0.9,24.0,34.849573,138.783188,3,[歯科、小児歯科]
2023-09-16,堀内歯科医院,賀茂郡西伊豆町仁科２１３－１ 朝倉ビル,静岡県賀茂郡西伊豆町仁科213-1, 朝倉ﾋﾞﾙ,2022年12月24日,http://www.qq.pref.shizuoka.jp/qq22/qqport/kenmintop/detail/fk1102.php?kinouid=fk9020&sisetuid=13525,個人,堀内 幸雄,堀内幸雄,"[歯科領域の一次診療, , ]",na,na,na,"[駐車場がある（契約駐車場も含む）, 院内処方, 施設内における全面禁煙の実施, ]",na,na,na,1.0|1|－,-|-|-,-|-|-,na,18.8,34.769554,138.778609,3,[歯科]
2023-09-16,医療法人社団愛歯科診療所,熱海市田原本町９－１ 熱海第一ビル６Ｆ,静岡県熱海市田原本町9-1, 熱海第一ﾋﾞﾙ6f,2023年05月15日,http://www.qq.pref.shizuoka.jp/qq22/qqport/kenmintop/detail/fk1102.php?kinouid=fk9020&sisetuid=13539,医療法人,社団愛歯科診療所,牟田　龍生,"[歯科領域の一次診療, 著しく歯科診療が困難な者, 成人の歯科矯正治療, 摂食機能障害の治療, 顎変形症の歯科矯正治療, , ]","[埋伏歯抜歯, 顎変形症治療, 顎関節症治療, 口唇、舌若しくは口腔粘膜の炎症又は外傷の治療, ]",na,na,"[駐車場がある（契約駐車場も含む）, 院内処方, 視覚障害者への配慮（音声による情報の伝達）, 聴覚障害者への配慮（施設内の情報の表示）, 車椅子利用者への配慮（施設内のバリアフリー化の実施）, 車椅子対応トイレ, 施設内における全面禁煙の実施, 医療に関する相談窓口の設置, ]",na,na,"[病院との連携, 居宅介護支援事業所との連携, 診療所との連携, 薬局との連携, 訪問看護ステーションとの連携, ]",3.0|3|－,-|-|-,-|-|-,3.0|3|－,60.0,35.103337,139.079096,4,[歯科、矯正歯科、小児歯科、歯科口腔外科]
2023-09-16,愛歯科原田診療所,熱海市田原本町９－１ 熱海第一ビル６Ｆ,静岡県熱海市田原本町9-1, 熱海第一ﾋﾞﾙ6f,2023年01月09日,http://www.qq.pref.shizuoka.jp/qq22/qqport/kenmintop/detail/fk1102.php?kinouid=fk9020&sisetuid=13587,個人,原田 博己,原田　博己,"[歯科領域の一次診療, 成人の歯科矯正治療, ]","[埋伏歯抜歯, 口唇、舌若しくは口腔粘膜の炎症又は外傷の治療, 顎関節症治療, , ]",na,na,"[駐車場がある（契約駐車場も含む）, 院内処方, 車椅子利用者への配慮（施設内のバリアフリー化の実施）, 施設内における全面禁煙の実施, 医療に関する相談窓口の設置, ]",na,na,"[病院との連携, 居宅介護支援事業所との連携, ]",1.0|1|－,-|-|-,-|-|-,1.0|1|－,13.6,35.103357,139.079124,4,[歯科、矯正歯科、小児歯科、歯科口腔外科]
2023-09-16,あじろ歯科医院,熱海市下多賀１６５－６,静岡県熱海市下多賀165-6,,2023年03月28日,http://www.qq.pref.shizuoka.jp/qq22/qqport/kenmintop/detail/fk1102.php?kinouid=fk9020&sisetuid=13596,個人,宮﨑 壽男,宮﨑　壽男,"[歯科領域の一次診療, , ]",na,na,na,"[駐車場がある（契約駐車場も含む）, 施設内における全面禁煙の実施, ]",na,na,na,1.0|1|－,-|-|-,-|-|-,na,10.0,35.04428,139.08246,4,[歯科]
2023-09-16,あたみ駅前矯正歯科,熱海市田原本町９－１第一ビル２Ｆ,静岡県熱海市田原本町9-1,第一ﾋﾞﾙ2f,2023年01月16日,http://www.qq.pref.shizuoka.jp/qq22/qqport/kenmintop/detail/fk1102.php?kinouid=fk9020&sisetuid=50416,医療法人,幸陽会,松浦　毅士,"[歯科領域の一次診療, 顎変形症の歯科矯正治療, 成人の歯科矯正治療, 著しく歯科診療が困難な者, 唇顎口蓋裂の歯科矯正治療, , ]",na,na,na,"[駐車場がある（契約駐車場も含む）, 院内処方, 聴覚障害者への配慮（施設内の情報の表示）, 施設内における全面禁煙の実施, 医療に関する相談窓口の設置, ]",na,na,"[病院との連携, 診療所との連携, ]",4.0|1|3.0,-|-|-,-|-|-,－|－|－,10.0,35.103373,139.079108,4,[矯正]
2023-09-16,熱海歯科クリニック,熱海市田原本町４－１６ 伊東園ホテル熱海館２Ｆ,静岡県熱海市田原本町4-16, 伊東園ﾎﾃﾙ熱海館2f,2023年01月16日,http://www.qq.pref.shizuoka.jp/qq22/qqport/kenmintop/detail/fk1102.php?kinouid=fk9020&sisetuid=13594,医療法人,社団彩明会,渡邊　浩秀,"[歯科領域の一次診療, , ]",na,na,na,"[駐車場がある（契約駐車場も含む）, 車椅子利用者への配慮（施設内のバリアフリー化の実施）, 車椅子対応トイレ, ]",na,na,"[病院との連携, 居宅介護支援事業所との連携, 診療所との連携, ]",2.4|2|0.4,-|-|-,-|-|-,3.0|3|－,21.3,35.102023,139.076236,4,[歯科、小児歯科、訪問歯科]
2023-09-16,石田歯科医院,熱海市水口町４－１８,静岡県熱海市水口町4-18,,2023年01月12日,http://www.qq.pref.shizuoka.jp/qq22/qqport/kenmintop/detail/fk1102.php?kinouid=fk9020&sisetuid=13570,個人,石田 正樹,石田　正樹,"[歯科領域の一次診療, , ]","[埋伏歯抜歯, , ]",na,na,"[駐車場がある（契約駐車場も含む）, 院内処方, 施設内における全面禁煙の実施, ]",na,na,"[病院との連携, ]",2.0|2|－,-|-|-,-|-|-,－|－|－,11.5,35.097274,139.068375,4,[歯科、歯科口腔外科、小児歯科、矯正歯科]
2023-09-16,泉デンタルクリニック,熱海市泉８２－１,静岡県熱海市泉82-1,,2023年07月17日,http://www.qq.pref.shizuoka.jp/qq22/qqport/kenmintop/detail/fk1102.php?kinouid=fk9020&sisetuid=13604,個人,白川 啓一,白川　啓一,"[歯科領域の一次診療, , ]",na,na,na,"[施設内における全面禁煙の実施, ]",na,na,na,2.0|1|1.0,-|-|-,-|-|-,3.0|1|2.0,1.0,35.142067,139.078535,4,[歯科]
2023-09-16,井上歯科医院,熱海市清水町５－１５,静岡県熱海市清水町5-15,,2023年07月10日,http://www.qq.pref.shizuoka.jp/qq22/qqport/kenmintop/detail/fk1102.php?kinouid=fk9020&sisetuid=13544,個人,井上 俊,井上　俊,"[歯科領域の一次診療, , ]",na,na,na,"[院内処方, 施設内における全面禁煙の実施, ]",na,na,"[病院との連携, 薬局との連携, 診療所との連携, ]",1.0|1|－,-|-|-,-|-|-,1.0|1|－,20.0,35.093552,139.072875,4,[歯科]
2023-09-16,こあくつ歯科医院,熱海市福道町３－１５ ウエルネスビル３Ｆ,静岡県熱海市福道町3-15, ｳｴﾙﾈｽﾋﾞﾙ3f,2022年12月30日,http://www.qq.pref.shizuoka.jp/qq22/qqport/kenmintop/detail/fk1102.php?kinouid=fk9020&sisetuid=13581,個人,小圷 啓,小圷　啓,"[歯科領域の一次診療, 成人の歯科矯正治療, ]","[埋伏歯抜歯, 顎関節症治療, ]",na,na,"[駐車場がある（契約駐車場も含む）, 院内処方, 車椅子利用者への配慮（施設内のバリアフリー化の実施）, 施設内における全面禁煙の実施, ]",na,na,na,1.0|1|－,-|-|-,-|-|-,3.0|－|3.0,20.0,35.098385,139.066431,4,[歯科、矯正歯科、小児歯科、歯科口腔外科]
2023-09-16,国際医療福祉大学熱海病院,熱海市東海岸町１３－１,静岡県熱海市東海岸町13-1,,2020年01月31日,http://www.qq.pref.shizuoka.jp/qq22/qqport/kenmintop/detail/fk1102.php?kinouid=fk9020&sisetuid=10061,学校法人,国際医療福祉大学,池田　佳史,"[歯科領域の一次診療, 摂食機能障害の治療, 著しく歯科診療が困難な者, , ]","[埋伏歯抜歯, 顎骨骨折治療, 顎関節症治療, 口唇、舌若しくは口腔粘膜の炎症又は外傷の治療, 顎変形症治療, 唇顎口蓋裂治療, ]",na,na,"[駐車場がある（契約駐車場も含む）, 院内処方, 車椅子利用者への配慮（施設内のバリアフリー化の実施）, 車椅子対応トイレ, 施設内における全面禁煙の実施, 医療に関する相談窓口の設置, ]",na,na,na,na,-|-|-,-|-|-,na,683.8,35.103079,139.082652,4,[歯科口腔外科]
2023-09-16,佐藤歯科医院,熱海市下多賀１８２,静岡県熱海市下多賀182,,2023年01月02日,http://www.qq.pref.shizuoka.jp/qq22/qqport/kenmintop/detail/fk1102.php?kinouid=fk9020&sisetuid=13545,個人,佐藤卓男,佐藤　卓男,"[歯科領域の一次診療, , ]","[埋伏歯抜歯, , ]",na,na,"[駐車場がある（契約駐車場も含む）, 施設内における全面禁煙の実施, ]",na,na,"[病院との連携, 薬局との連携, 診療所との連携, ]",1.0|1|－,-|-|-,-|-|-,1.0|1|－,10.0,35.043201,139.081731,5,[歯科]
2023-09-16,セントラル歯科,熱海市中央町１－９ 中央ビル２Ｆ,静岡県熱海市中央町1-9, 中央ﾋﾞﾙ2f,2022年12月29日,http://www.qq.pref.shizuoka.jp/qq22/qqport/kenmintop/detail/fk1102.php?kinouid=fk9020&sisetuid=13543,個人,佐野 佳朗,佐野　佳朗,"[歯科領域の一次診療, , ]",na,na,na,[],na,na,na,1.0|1|－,-|-|-,-|-|-,－|－|－,10.0,35.095804,139.071698,5,[歯科]
2023-09-16,立山歯科医院,熱海市桃山町１８－１３,静岡県熱海市桃山町18-13,,2023年08月03日,http://www.qq.pref.shizuoka.jp/qq22/qqport/kenmintop/detail/fk1102.php?kinouid=fk9020&sisetuid=13573,個人,立山 康夫,立山　康夫,"[歯科領域の一次診療, , ]",na,na,na,"[駐車場がある（契約駐車場も含む）, 院内処方, 施設内における全面禁煙の実施, ]",na,na,"[病院との連携, 診療所との連携, ]",2.0|2|－,-|-|-,-|-|-,na,17.8,35.106384,139.079624,5,[歯科、小児歯科]
2023-09-16,谷口歯科医院,熱海市昭和町２０－１３,静岡県熱海市昭和町20-13,,2022年12月23日,http://www.qq.pref.shizuoka.jp/qq22/qqport/kenmintop/detail/fk1102.php?kinouid=fk9020&sisetuid=13603,個人,谷口 富白,谷口　富白,"[歯科領域の一次診療, , ]",na,na,na,"[駐車場がある（契約駐車場も含む）, 施設内における全面禁煙の実施, ]",na,na,"[病院との連携, ]",1.0|1|－,-|-|-,-|-|-,1.0|1|－,10.0,35.091274,139.068765,5,[歯科]
2023-09-16,谷口歯科診療所,熱海市銀座町１３－４,静岡県熱海市銀座町13-4,,2022年12月21日,http://www.qq.pref.shizuoka.jp/qq22/qqport/kenmintop/detail/fk1102.php?kinouid=fk9020&sisetuid=13565,個人,谷口 知子,谷口　知子,"[歯科領域の一次診療, , ]",na,na,na,"[駐車場がある（契約駐車場も含む）, 施設内における全面禁煙の実施, ]",na,na,"[診療所との連携, 薬局との連携, ]",2.0|2|－,-|-|-,-|-|-,－|－|－,15.0,35.097496,139.073486,5,[歯科]
2023-09-16,ツイキ歯科医院,熱海市中央町１９－２７ 對木ビル ３Ｆ,静岡県熱海市中央町19-27, 對木ﾋﾞﾙ 3f,2023年01月10日,http://www.qq.pref.shizuoka.jp/qq22/qqport/kenmintop/detail/fk1102.php?kinouid=fk9020&sisetuid=13541,個人,對木 將人,對木　將人,"[歯科領域の一次診療, 著しく歯科診療が困難な者, 成人の歯科矯正治療, , ]","[埋伏歯抜歯, 口唇、舌若しくは口腔粘膜の炎症又は外傷の治療, 顎関節症治療, , ]",na,na,"[聴覚障害者への配慮（施設内の情報の表示）, 施設内における全面禁煙の実施, 医療に関する相談窓口の設置, ]",na,na,"[病院との連携, 薬局との連携, 居宅介護支援事業所との連携, ]",2.5|2|0.5,-|-|-,-|-|-,2.0|2|－,22.6,35.095444,139.071166,5,[歯科、矯正歯科、小児歯科]
2023-09-16,土屋歯科医院,熱海市下多賀９０６－５,静岡県熱海市下多賀906-5,,2023年01月05日,http://www.qq.pref.shizuoka.jp/qq22/qqport/kenmintop/detail/fk1102.php?kinouid=fk9020&sisetuid=13569,個人,土屋 元雄,土屋　元雄,"[歯科領域の一次診療, , ]",na,na,na,"[駐車場がある（契約駐車場も含む）, 院内処方, 施設内における全面禁煙の実施, ]",na,na,na,1.0|1|－,-|-|-,-|-|-,na,22.0,35.049446,139.071016,5,[歯科]
2023-09-16,野田デンタルクリニック,熱海市清水町２１－７ 石井ビル,静岡県熱海市清水町21-7, 石井ﾋﾞﾙ,2022年07月11日,http://www.qq.pref.shizuoka.jp/qq22/qqport/kenmintop/detail/fk1102.php?kinouid=fk9020&sisetuid=13601,個人,野田正俊,野田　正俊,"[歯科領域の一次診療, , ]",na,na,na,"[施設内における全面禁煙の実施, ]",na,na,"[病院との連携, ]",1.0|1|－,-|-|-,-|-|-,1.0|1|－,10.0,35.094581,139.070524,5,[歯科、小児歯科、歯科口腔外科]
2023-09-16,野本歯科医院,熱海市清水町１－１４,静岡県熱海市清水町1-14,,2022年12月24日,http://www.qq.pref.shizuoka.jp/qq22/qqport/kenmintop/detail/fk1102.php?kinouid=fk9020&sisetuid=13538,個人,松本 晃,松本　律子,"[歯科領域の一次診療, 摂食機能障害の治療, 著しく歯科診療が困難な者, , ]","[埋伏歯抜歯, 口唇、舌若しくは口腔粘膜の炎症又は外傷の治療, 顎関節症治療, , ]",na,na,"[駐車場がある（契約駐車場も含む）, 視覚障害者への配慮（音声による情報の伝達）, 聴覚障害者への配慮（施設内の情報の表示）, 施設内における全面禁煙の実施, ]",na,na,"[病院との連携, 居宅介護支援事業所との連携, 診療所との連携, ]",3.0|2|1.0,-|-|-,-|-|-,4.0|2|2.0,47.8,35.094496,139.071348,5,[歯科、小児歯科、歯科口腔外科]
2023-09-16,二見歯科医院,熱海市上多賀８５０,静岡県熱海市上多賀850,,2022年12月21日,http://www.qq.pref.shizuoka.jp/qq22/qqport/kenmintop/detail/fk1102.php?kinouid=fk9020&sisetuid=13546,個人,二見一郎,二見　一郎,"[歯科領域の一次診療, , ]",na,na,na,"[駐車場がある（契約駐車場も含む）, 院内処方, 車椅子利用者への配慮（施設内のバリアフリー化の実施）, 施設内における全面禁煙の実施, ]",na,na,"[病院との連携, ]",1.0|1|－,-|-|-,-|-|-,－|－|－,15.5,35.060861,139.073543,5,[歯科]
2023-09-16,本田歯科医院,熱海市銀座町１４－２５,静岡県熱海市銀座町14-25,,2022年12月23日,http://www.qq.pref.shizuoka.jp/qq22/qqport/kenmintop/detail/fk1102.php?kinouid=fk9020&sisetuid=13537,個人,本田 良和,本田　良和,"[歯科領域の一次診療, , ]",na,na,na,"[駐車場がある（契約駐車場も含む）, 施設内における全面禁煙の実施, 医療に関する相談窓口の設置, ]",na,na,"[病院との連携, 薬局との連携, 診療所との連携, ]",1.0|1|－,-|-|-,-|-|-,－|－|－,25.0,35.097552,139.073069,6,[歯科]
2023-09-16,みと歯科・矯正歯科,熱海市田原本町９－１ 熱海第一ビル３Ｆ,静岡県熱海市田原本町9-1, 熱海第一ﾋﾞﾙ3f,2023年01月10日,http://www.qq.pref.shizuoka.jp/qq22/qqport/kenmintop/detail/fk1102.php?kinouid=fk9020&sisetuid=13591,個人,三戸 幹夫,三戸　幹夫,"[歯科領域の一次診療, 成人の歯科矯正治療, ]","[埋伏歯抜歯, , ]",na,na,"[院内処方, 施設内における全面禁煙の実施, ]",na,na,"[病院との連携, 薬局との連携, 診療所との連携, ]",1.0|1|－,-|-|-,-|-|-,1.0|1|－,13.5,35.103357,139.079124,6,[歯科、矯正歯科、小児歯科]
2023-09-16,矢田デンタル,熱海市西山町１９－６,静岡県熱海市西山町19-6,,2023年04月19日,http://www.qq.pref.shizuoka.jp/qq22/qqport/kenmintop/detail/fk1102.php?kinouid=fk9020&sisetuid=13606,個人,矢田浩章,矢田浩章,"[歯科領域の一次診療, 成人の歯科矯正治療, ]","[埋伏歯抜歯, 口唇、舌若しくは口腔粘膜の炎症又は外傷の治療, 顎関節症治療, , ]",na,na,"[駐車場がある（契約駐車場も含む）, 院内処方, 施設内における全面禁煙の実施, ]",na,na,"[病院との連携, 診療所との連携, ]",1.0|1|－,-|-|-,-|-|-,na,5.0,35.106654,139.063865,6,[歯科、矯正歯科、歯科口腔外科]
2023-09-16,やまだ歯科医院,熱海市清水町６－２７ ニュ－山田ビル ２Ｆ,静岡県熱海市清水町6-27, ﾆｭ-山田ﾋﾞﾙ 2f,2023年01月13日,http://www.qq.pref.shizuoka.jp/qq22/qqport/kenmintop/detail/fk1102.php?kinouid=fk9020&sisetuid=13578,個人,山田 次郎,石井　次郎,"[歯科領域の一次診療, 著しく歯科診療が困難な者, 成人の歯科矯正治療, , ]","[顎関節症治療, , ]",na,na,"[駐車場がある（契約駐車場も含む）, 施設内における全面禁煙の実施, ]",na,na,"[病院との連携, 居宅介護支援事業所との連携, 診療所との連携, 薬局との連携, 訪問看護ステーションとの連携, ]",2.0|2|－,-|-|-,-|-|-,1.0|1|－,25.0,35.093135,139.072431,6,[歯科、小児歯科、歯科口腔外科]
2023-09-16,あかつき歯科医院,伊東市松川町３－２,静岡県伊東市松川町3-2,,2022年12月27日,http://www.qq.pref.shizuoka.jp/qq22/qqport/kenmintop/detail/fk1102.php?kinouid=fk9020&sisetuid=13566,個人,鈴木 暁,鈴木　暁,"[歯科領域の一次診療, , ]",na,na,na,"[院内処方, 施設内における全面禁煙の実施, ]",na,na,na,1.0|1|－,-|-|-,-|-|-,－|－|－,5.1,34.972065,139.095823,6,[歯科]
2023-09-16,医療法人社団アプロデーテアヒルデンタルクリニック　伊東市在宅訪問歯科プラス,伊東市広野１丁目３番２６号 広野ＭＣビル２階,静岡県伊東市広野一丁目3-26, 広野mcﾋﾞﾙ2階,2023年01月12日,http://www.qq.pref.shizuoka.jp/qq22/qqport/kenmintop/detail/fk1102.php?kinouid=fk9020&sisetuid=52045,医療法人,社団アプロデーテ 理事長 川原 朋江,松井　秀人,"[歯科領域の一次診療, 成人の歯科矯正治療, ]","[埋伏歯抜歯, , ]",na,na,"[駐車場がある（契約駐車場も含む）, 車椅子利用者への配慮（施設内のバリアフリー化の実施）, 車椅子対応トイレ, 施設内における全面禁煙の実施, ]",na,na,"[居宅介護支援事業所との連携, ]",2.2|2|0.2,-|-|-,-|-|-,2.6|2|0.6,10.1,34.962943,139.091141,6,[歯科、歯科口腔外科、小児歯科、矯正歯科]
2023-09-16,飯田歯科医院,伊東市東松原町１３－３,静岡県伊東市東松原町13-3,,2022年12月22日,http://www.qq.pref.shizuoka.jp/qq22/qqport/kenmintop/detail/fk1102.php?kinouid=fk9020&sisetuid=13547,個人,飯田 進,飯田　進,"[歯科領域の一次診療, 著しく歯科診療が困難な者, ]","[埋伏歯抜歯, 口唇、舌若しくは口腔粘膜の炎症又は外傷の治療, 顎関節症治療, , ]",na,na,"[駐車場がある（契約駐車場も含む）, 院内処方, 施設内における全面禁煙の実施, ]",na,na,na,1.0|1|－,-|-|-,-|-|-,1.0|－|1.0,15.0,34.971954,139.097462,6,[歯科、歯科口腔外科]
2023-09-16,石井歯科医院,伊東市静海町４－２０,静岡県伊東市静海町4-20,,2023年01月15日,http://www.qq.pref.shizuoka.jp/qq22/qqport/kenmintop/detail/fk1102.php?kinouid=fk9020&sisetuid=13562,個人,石井 瑞枝,石井　瑞枝,"[歯科領域の一次診療, , ]",na,na,na,"[駐車場がある（契約駐車場も含む）, 院内処方, 施設内における全面禁煙の実施, ]",na,na,na,1.0|1|－,-|-|-,-|-|-,na,15.0,34.969205,139.104684,6,[歯科]
2023-09-16,石川歯科,伊東市銀座元町６－１,静岡県伊東市銀座元町6-1,,2022年12月21日,http://www.qq.pref.shizuoka.jp/qq22/qqport/kenmintop/detail/fk1102.php?kinouid=fk9020&sisetuid=13552,個人,石川 知里,石川　知里,"[歯科領域の一次診療, , ]",na,na,na,"[駐車場がある（契約駐車場も含む）, 院内処方, 車椅子利用者への配慮（施設内のバリアフリー化の実施）, 施設内における全面禁煙の実施, ]",na,na,"[病院との連携, ]",2.0|2|－,-|-|-,-|-|-,－|－|－,12.0,34.970343,139.097351,6,[歯科]
2023-09-16,伊東中央歯科医院,伊東市中央町９－１,静岡県伊東市中央町9-1,,2022年12月27日,http://www.qq.pref.shizuoka.jp/qq22/qqport/kenmintop/detail/fk1102.php?kinouid=fk9020&sisetuid=13588,個人,山田 哲二,山田　哲二,"[歯科領域の一次診療, 著しく歯科診療が困難な者, 成人の歯科矯正治療, , ]","[埋伏歯抜歯, , ]",na,na,"[駐車場がある（契約駐車場も含む）, 院内処方, 視覚障害者への配慮（音声による情報の伝達）, 車椅子利用者への配慮（施設内のバリアフリー化の実施）, 施設内における全面禁煙の実施, 医療に関する相談窓口の設置, ]",na,na,"[病院との連携, ]",1.1|1|0.1,-|-|-,-|-|-,na,30.0,34.972038,139.094796,6,[歯科、矯正歯科、小児歯科]
2023-09-16,井原歯科岡診療所,伊東市桜木町１－５－１１,静岡県伊東市桜木町一丁目5-11,,2023年04月27日,http://www.qq.pref.shizuoka.jp/qq22/qqport/kenmintop/detail/fk1102.php?kinouid=fk9020&sisetuid=13561,個人,井原 正剛,井原　正剛,"[歯科領域の一次診療, , ]","[埋伏歯抜歯, , ]",na,na,"[駐車場がある（契約駐車場も含む）, ]",na,na,na,1.0|1|－,-|-|-,-|-|-,na,7.0,34.966233,139.093907,7,[歯科]
2023-09-16,うさみ歯科クリニック,伊東市宇佐美１５７２－５５,静岡県伊東市宇佐美1572-55,,2023年03月23日,http://www.qq.pref.shizuoka.jp/qq22/qqport/kenmintop/detail/fk1102.php?kinouid=fk9020&sisetuid=13602,個人,年縄 壮夫,年縄壮夫,"[歯科領域の一次診療, 成人の歯科矯正治療, ]","[埋伏歯抜歯, 口唇、舌若しくは口腔粘膜の炎症又は外傷の治療, 顎関節症治療, , ]",na,na,"[駐車場がある（契約駐車場も含む）, 施設内における全面禁煙の実施, ]",na,na,"[病院との連携, ]",1.0|1|－,-|-|-,-|-|-,2.5|2|0.5,25.0,35.006755,139.078723,7,[歯科、矯正歯科、小児歯科、歯科口腔外科]
2023-09-16,ウノ歯科医院,伊東市八幡野１２９８－６１,静岡県伊東市八幡野1298-61,,2023年01月02日,http://www.qq.pref.shizuoka.jp/qq22/qqport/kenmintop/detail/fk1102.php?kinouid=fk9020&sisetuid=13563,個人,宇野 良樹,宇野　良樹,"[歯科領域の一次診療, , ]",na,na,na,"[駐車場がある（契約駐車場も含む）, 院内処方, 施設内における全面禁煙の実施, ]",na,na,"[病院との連携, 診療所との連携, ]",1.0|1|－,-|-|-,-|-|-,2.0|2|－,10.0,34.886464,139.105688,7,[歯科]
2023-09-16,栄光歯科医院,伊東市荻１５２－１,静岡県伊東市荻152-1,,2023年01月10日,http://www.qq.pref.shizuoka.jp/qq22/qqport/kenmintop/detail/fk1102.php?kinouid=fk9020&sisetuid=13586,個人,土屋 厚,土屋　厚,"[歯科領域の一次診療, 成人の歯科矯正治療, ]","[埋伏歯抜歯, 顎関節症治療, ]",na,na,"[駐車場がある（契約駐車場も含む）, 院内処方, 施設内における全面禁煙の実施, ]",na,na,"[病院との連携, ]",1.0|1|－,-|-|-,-|-|-,2.0|2|－,20.0,34.936541,139.090937,7,[歯科、矯正歯科、小児歯科]
2023-09-16,エトワール歯科クリニック,伊東市広野１－１－２６,静岡県伊東市広野一丁目1-26,,2023年01月11日,http://www.qq.pref.shizuoka.jp/qq22/qqport/kenmintop/detail/fk1102.php?kinouid=fk9020&sisetuid=13555,個人,渡辺 眞光,渡辺　眞光,"[歯科領域の一次診療, , ]","[埋伏歯抜歯, , ]",na,na,"[駐車場がある（契約駐車場も含む）, 院内処方, 施設内における全面禁煙の実施, ]",na,na,"[病院との連携, 薬局との連携, 診療所との連携, ]",2.0|1|1.0,-|-|-,-|-|-,na,14.8,34.963927,139.092352,7,[歯科]
2023-09-16,エムアイデンタルクリニック,伊東市南町２－３－２３,静岡県伊東市南町二丁目3-23,,2022年12月22日,http://www.qq.pref.shizuoka.jp/qq22/qqport/kenmintop/detail/fk1102.php?kinouid=fk9020&sisetuid=13600,個人,井原 雅人,井原　雅人,"[歯科領域の一次診療, 成人の歯科矯正治療, ]","[埋伏歯抜歯, 顎関節症治療, ]",na,na,"[駐車場がある（契約駐車場も含む）, 院内処方, 施設内における全面禁煙の実施, 医療に関する相談窓口の設置, ]",na,na,"[病院との連携, 薬局との連携, 診療所との連携, ]",1.0|1|－,-|-|-,-|-|-,3.5|2|1.5,36.6,34.955484,139.088547,7,[歯科、矯正歯科、小児歯科]
2023-09-16,エンゼル歯科クリニック,伊東市鎌田９５７－１,静岡県伊東市鎌田957-1,,2023年03月24日,http://www.qq.pref.shizuoka.jp/qq22/qqport/kenmintop/detail/fk1102.php?kinouid=fk9020&sisetuid=13582,個人,塩崎 洋堂,塩崎　洋堂,"[歯科領域の一次診療, 成人の歯科矯正治療, ]",na,na,na,"[駐車場がある（契約駐車場も含む）, 院内処方, 施設内における全面禁煙の実施, 医療に関する相談窓口の設置, ]",na,na,na,2.0|1|1.0,-|-|-,-|-|-,na,35.0,34.947096,139.081853,7,[歯科、矯正歯科、小児歯科]
2023-09-16,岡山歯科,伊東市湯川１－６－４,静岡県伊東市湯川一丁目6-4,,2022年12月26日,http://www.qq.pref.shizuoka.jp/qq22/qqport/kenmintop/detail/fk1102.php?kinouid=fk9020&sisetuid=13549,個人,岡山 佐喜子,岡山　佐喜子,"[歯科領域の一次診療, , ]",na,na,na,"[駐車場がある（契約駐車場も含む）, ]",na,na,"[病院との連携, ]",2.0|2|－,-|-|-,-|-|-,－|－|－,9.0,34.974204,139.093823,7,[歯科]
2023-09-16,小川歯科医院,伊東市宇佐美１７８２－９,静岡県伊東市宇佐美1782-9,,2023年06月07日,http://www.qq.pref.shizuoka.jp/qq22/qqport/kenmintop/detail/fk1102.php?kinouid=fk9020&sisetuid=13557,個人,小川 敦嗣,小川　敦嗣,"[歯科領域の一次診療, 成人の歯科矯正治療, ]","[埋伏歯抜歯, 顎関節症治療, ]",na,na,"[駐車場がある（契約駐車場も含む）, 院内処方, 施設内における全面禁煙の実施, 医療に関する相談窓口の設置, ]",na,na,"[病院との連携, 居宅介護支援事業所との連携, 診療所との連携, 薬局との連携, 訪問看護ステーションとの連携, ]",2.0|1|1.0,-|-|-,-|-|-,3.0|2|1.0,30.0,35.005895,139.083378,7,[歯科、小児歯科、歯科口腔外科、矯正歯科]
2023-09-16,上條歯科医院,伊東市宇佐美１８７４－２１,静岡県伊東市宇佐美1874-21,,2023年05月15日,http://www.qq.pref.shizuoka.jp/qq22/qqport/kenmintop/detail/fk1102.php?kinouid=fk9020&sisetuid=13558,個人,上條 定夫,上條　定夫,"[歯科領域の一次診療, , ]",na,na,na,"[駐車場がある（契約駐車場も含む）, 院内処方, 施設内における全面禁煙の実施, ]",na,na,"[病院との連携, 薬局との連携, 診療所との連携, ]",1.0|1|－,-|-|-,-|-|-,na,10.7,35.005089,139.081767,7,[歯科]
2023-09-16,菊池歯科医院,伊東市吉田１１８－１,静岡県伊東市吉田118-1,,2023年01月16日,http://www.qq.pref.shizuoka.jp/qq22/qqport/kenmintop/detail/fk1102.php?kinouid=fk9020&sisetuid=13580,個人,菊池 光彦,菊池　光彦,"[歯科領域の一次診療, , ]","[顎関節症治療, , ]",na,na,"[駐車場がある（契約駐車場も含む）, 施設内における全面禁煙の実施, ]",na,na,na,1.0|1|－,-|-|-,-|-|-,2.0|2|－,36.2,34.933765,139.12224,8,[歯科]
2023-09-16,小出歯科医院,伊東市桜が丘２－５－８,静岡県伊東市桜ｶﾞ丘2-5-8,,2022年12月21日,http://www.qq.pref.shizuoka.jp/qq22/qqport/kenmintop/detail/fk1102.php?kinouid=fk9020&sisetuid=13577,個人,小出泰正,小出　泰正,"[歯科領域の一次診療, , ]",na,na,na,"[駐車場がある（契約駐車場も含む）, 院内処方, 施設内における全面禁煙の実施, ]",na,na,na,1.0|1|－,-|-|-,-|-|-,－|－|－,7.0,34.956484,139.087769,8,[歯科]
2023-09-16,医療法人社団新正会高原歯科医院,伊東市富戸１３１７－５１２３,静岡県伊東市富戸1317-5123,,2022年12月26日,http://www.qq.pref.shizuoka.jp/qq22/qqport/kenmintop/detail/fk1102.php?kinouid=fk9020&sisetuid=13572,医療法人,社団新正会,熱田　俊一,"[歯科領域の一次診療, 成人の歯科矯正治療, ]","[埋伏歯抜歯, 顎関節症治療, ]",na,na,"[駐車場がある（契約駐車場も含む）, 院内処方, 施設内における全面禁煙の実施, ]",na,na,"[病院との連携, 診療所との連携, ]",1.7|1|0.7,-|-|-,-|-|-,1.5|1|0.5,32.5,34.902712,139.110436,8,[歯科、矯正歯科、小児歯科、歯科口腔外科]
2023-09-16,小林歯科医院,伊東市荻１４７－３,静岡県伊東市荻147-3,,2023年03月23日,http://www.qq.pref.shizuoka.jp/qq22/qqport/kenmintop/detail/fk1102.php?kinouid=fk9020&sisetuid=13568,個人,小林 誠,小林　誠,"[歯科領域の一次診療, , ]",na,na,na,"[駐車場がある（契約駐車場も含む）, 院内処方, 車椅子利用者への配慮（施設内のバリアフリー化の実施）, 施設内における全面禁煙の実施, ]",na,na,na,1.0|1|－,-|-|-,-|-|-,na,15.0,34.936097,139.089714,8,[歯科]
2023-09-16,しまだ歯科医院,伊東市猪戸１－６－１２,静岡県伊東市猪戸一丁目6-12,,2022年12月25日,http://www.qq.pref.shizuoka.jp/qq22/qqport/kenmintop/detail/fk1102.php?kinouid=fk9020&sisetuid=13574,個人,島田芳和,島田　芳和,"[歯科領域の一次診療, , ]",na,na,na,"[駐車場がある（契約駐車場も含む）, 院内処方, 施設内における全面禁煙の実施, ]",na,na,na,1.0|1|－,-|-|-,-|-|-,1.0|1|－,28.0,34.972343,139.092074,8,[歯科]
2023-09-16,下村歯科医院,伊東市吉田４０４,静岡県伊東市吉田404,,2023年01月30日,http://www.qq.pref.shizuoka.jp/qq22/qqport/kenmintop/detail/fk1102.php?kinouid=fk9020&sisetuid=13571,個人,下村 俊宏,下村　俊宏,"[歯科領域の一次診療, , ]","[埋伏歯抜歯, 口唇、舌若しくは口腔粘膜の炎症又は外傷の治療, 顎関節症治療, , ]",na,na,"[駐車場がある（契約駐車場も含む）, 院内処方, 車椅子利用者への配慮（施設内のバリアフリー化の実施）, 施設内における全面禁煙の実施, ]",na,na,"[病院との連携, 訪問看護ステーションとの連携, 診療所との連携, 居宅介護支援事業所との連携, ]",2.0|2|－,-|-|-,-|-|-,3.0|2|1.0,35.0,34.936114,139.120621,8,[歯科]
2023-09-16,新谷歯科医院,伊東市宇佐美１６０９－５,静岡県伊東市宇佐美1609-5,,2023年03月27日,http://www.qq.pref.shizuoka.jp/qq22/qqport/kenmintop/detail/fk1102.php?kinouid=fk9020&sisetuid=13548,個人,新谷 康啓,新谷　康啓,"[歯科領域の一次診療, , ]",na,na,na,"[駐車場がある（契約駐車場も含む）, ]",na,na,"[病院との連携, 居宅介護支援事業所との連携, 診療所との連携, 薬局との連携, 訪問看護ステーションとの連携, ]",2.0|2|－,-|-|-,-|-|-,1.0|－|1.0,20.0,35.008367,139.079629,8,[歯科]
2023-09-16,鈴木歯科医院,伊東市竹の内２－１－４,静岡県伊東市竹ﾉ内二丁目1-4,,2023年04月03日,http://www.qq.pref.shizuoka.jp/qq22/qqport/kenmintop/detail/fk1102.php?kinouid=fk9020&sisetuid=13551,個人,鈴木 徹雄,鈴木　徹雄,"[歯科領域の一次診療, , ]",na,na,na,"[駐車場がある（契約駐車場も含む）, 院内処方, 喫煙室の設置, ]",na,na,na,1.0|1|－,-|-|-,-|-|-,na,1.0,34.969467,139.099267,8,[歯科]
2023-09-16,高川歯科医院,伊東市八幡野１１８９－５８,静岡県伊東市八幡野1189-58,,2022年11月23日,http://www.qq.pref.shizuoka.jp/qq22/qqport/kenmintop/detail/fk1102.php?kinouid=fk9020&sisetuid=13584,個人,高川 徹一,高川　徹一,"[歯科領域の一次診療, 著しく歯科診療が困難な者, ]",na,na,na,"[駐車場がある（契約駐車場も含む）, 院内処方, 車椅子利用者への配慮（施設内のバリアフリー化の実施）, 施設内における全面禁煙の実施, ]",na,na,na,3.0|1|2.0,-|-|-,-|-|-,2.0|1|1.0,30.0,34.875937,139.105438,8,[歯科]
2023-09-16,医療法人社団青歯会ちゃいるど歯科医院,伊東市松原本町１６－１６号,静岡県伊東市松原本町16-16,,2023年03月25日,http://www.qq.pref.shizuoka.jp/qq22/qqport/kenmintop/detail/fk1102.php?kinouid=fk9020&sisetuid=13599,医療法人,社団青歯会,板倉　和彦,na,na,na,na,"[駐車場がある（契約駐車場も含む）, 車椅子利用者への配慮（施設内のバリアフリー化の実施）, 施設内における全面禁煙の実施, ]",na,na,"[診療所との連携, 薬局との連携, ]",1.0|1|－,-|-|-,-|-|-,4.0|3|1.0,50.0,34.973292,139.095934,8,[歯科、小児歯科]
2023-09-16,土屋歯科診療所,伊東市竹の内２－４－２０,静岡県伊東市竹ﾉ内二丁目4-20,,2023年03月24日,http://www.qq.pref.shizuoka.jp/qq22/qqport/kenmintop/detail/fk1102.php?kinouid=fk9020&sisetuid=13560,個人,土屋 宏,土屋　宏,"[歯科領域の一次診療, , ]","[埋伏歯抜歯, , ]",na,na,"[駐車場がある（契約駐車場も含む）, 院内処方, 施設内における全面禁煙の実施, ]",na,na,na,1.0|1|－,-|-|-,-|-|-,na,22.8,34.968871,139.097629,9,[歯科]
2023-09-16,鶴岡歯科医院,伊東市宮川町１－３－１３,静岡県伊東市宮川町一丁目3-13,,2023年03月09日,http://www.qq.pref.shizuoka.jp/qq22/qqport/kenmintop/detail/fk1102.php?kinouid=fk9020&sisetuid=13554,個人,鶴岡 好明,鶴岡　好明,"[歯科領域の一次診療, 著しく歯科診療が困難な者, ]","[埋伏歯抜歯, , ]",na,na,"[駐車場がある（契約駐車場も含む）, 院内処方, ]",na,na,na,2.0|1|1.0,-|-|-,-|-|-,na,10.0,34.954456,139.086547,9,[歯科]
2023-09-16,難波歯科医院,伊東市玖須美元和田７２０－１４３ 伊東ショッピングプラザデュオ２階,静岡県伊東市玖須美元和田720-143, 伊東ｼｮｯﾋﾟﾝｸﾞﾌﾟﾗｻﾞﾃﾞｭｵ2階,2023年01月19日,http://www.qq.pref.shizuoka.jp/qq22/qqport/kenmintop/detail/fk1102.php?kinouid=fk9020&sisetuid=13592,個人,難波 祐一,難波　祐一,"[歯科領域の一次診療, 成人の歯科矯正治療, ]","[埋伏歯抜歯, 口唇、舌若しくは口腔粘膜の炎症又は外傷の治療, 顎関節症治療, , ]",na,na,"[駐車場がある（契約駐車場も含む）, 視覚障害者への配慮（音声による情報の伝達）, 聴覚障害者への配慮（施設内の情報の表示）, 車椅子利用者への配慮（施設内のバリアフリー化の実施）, 施設内における全面禁煙の実施, ]",na,na,"[病院との連携, 薬局との連携, 診療所との連携, ]",1.1|1|0.1,-|-|-,-|-|-,1.0|1|－,23.0,34.948763,139.11474,9,[歯科、矯正歯科、小児歯科、歯科口腔外科]
2023-09-16,仁田歯科医院,伊東市宇佐美１９６６－１８,静岡県伊東市宇佐美1966-18,,2023年01月25日,http://www.qq.pref.shizuoka.jp/qq22/qqport/kenmintop/detail/fk1102.php?kinouid=fk9020&sisetuid=13593,個人,仁田 直嗣,仁田　直嗣,"[歯科領域の一次診療, , ]",na,na,na,"[駐車場がある（契約駐車場も含む）, 院内処方, 車椅子利用者への配慮（施設内のバリアフリー化の実施）, 車椅子対応トイレ, 施設内における全面禁煙の実施, ]",na,na,na,1.0|1|－,-|-|-,-|-|-,－|－|－,12.5,35.003117,139.078323,9,[歯科、小児歯科]
2023-09-16,医療法人社団　健伸会　はぎわら歯科,伊東市八幡野１１９４－３０,静岡県伊東市八幡野1194-30,,2023年01月04日,http://www.qq.pref.shizuoka.jp/qq22/qqport/kenmintop/detail/fk1102.php?kinouid=fk9020&sisetuid=13590,個人,萩原 洋行,萩原　洋行,"[歯科領域の一次診療, 成人の歯科矯正治療, ]","[埋伏歯抜歯, 顎関節症治療, ]",na,na,"[駐車場がある（契約駐車場も含む）, 院内処方, 車椅子利用者への配慮（施設内のバリアフリー化の実施）, 施設内における全面禁煙の実施, ]",na,na,"[病院との連携, 診療所との連携, ]",3.0|3|－,-|-|-,-|-|-,6.0|4|2.0,51.0,34.877048,139.103549,9,[歯科、歯科口腔外科、小児歯科、矯正歯科]
2023-09-16,医療法人社団皓歯会ひだ歯科医院,伊東市川奈１２２８－２１０,静岡県伊東市川奈1228-210,,2022年12月24日,http://www.qq.pref.shizuoka.jp/qq22/qqport/kenmintop/detail/fk1102.php?kinouid=fk9020&sisetuid=13567,医療法人,社団皓歯会,肥田　達彦,"[歯科領域の一次診療, 成人の歯科矯正治療, ]","[埋伏歯抜歯, , ]",na,na,"[駐車場がある（契約駐車場も含む）, 院内処方, 施設内における全面禁煙の実施, ]",na,na,"[診療所との連携, ]",1.0|1|－,-|-|-,-|-|-,2.0|2|－,35.0,34.953123,139.118295,9,[歯科]
2023-09-16,富士見歯科医院,伊東市玖須美元和田７３０,静岡県伊東市玖須美元和田730,,2022年12月22日,http://www.qq.pref.shizuoka.jp/qq22/qqport/kenmintop/detail/fk1102.php?kinouid=fk9020&sisetuid=13589,個人,山田 一郎,山田　一郎,"[歯科領域の一次診療, , ]","[埋伏歯抜歯, 口唇、舌若しくは口腔粘膜の炎症又は外傷の治療, 顎関節症治療, , ]",na,na,"[駐車場がある（契約駐車場も含む）, 院内処方, 車椅子利用者への配慮（施設内のバリアフリー化の実施）, 施設内における全面禁煙の実施, ]",na,na,"[病院との連携, ]",1.0|1|－,-|-|-,-|-|-,na,15.5,34.956401,139.108184,9,[歯科、小児歯科、歯科口腔外科]
2023-09-16,ホワイト歯科クリニック,伊東市竹の内１－５－１３,静岡県伊東市竹ﾉ内一丁目5-13,,2023年03月23日,http://www.qq.pref.shizuoka.jp/qq22/qqport/kenmintop/detail/fk1102.php?kinouid=fk9020&sisetuid=13575,個人,稲葉 雄司,稲葉　雄司,"[歯科領域の一次診療, 著しく歯科診療が困難な者, ]","[埋伏歯抜歯, 口唇、舌若しくは口腔粘膜の炎症又は外傷の治療, 顎関節症治療, , ]",na,na,"[駐車場がある（契約駐車場も含む）, 院内処方, 聴覚障害者への配慮（施設内の情報の表示）, 施設内における全面禁煙の実施, ]",na,na,"[病院との連携, 薬局との連携, 診療所との連携, ]",1.0|1|－,-|-|-,-|-|-,－|－|－,14.6,34.967705,139.09574,9,[歯科]
2023-09-16,前島歯科医院,伊東市玖須美元和田７２７－７１,静岡県伊東市玖須美元和田727-71,,2022年12月21日,http://www.qq.pref.shizuoka.jp/qq22/qqport/kenmintop/detail/fk1102.php?kinouid=fk9020&sisetuid=13585,個人,前島 寛爾,前島　寛爾,na,na,na,na,"[駐車場がある（契約駐車場も含む）, 院内処方, 施設内における全面禁煙の実施, ]",na,na,na,1.0|1|－,-|-|-,-|-|-,na,15.0,34.949929,139.114712,9,[歯科]
2023-09-16,みどり歯科クリニック,伊東市川奈１２３０－１９ 川奈駅前ビル東館２階,静岡県伊東市川奈1230-19, 川奈駅前ﾋﾞﾙ東館2階,2022年12月23日,http://www.qq.pref.shizuoka.jp/qq22/qqport/kenmintop/detail/fk1102.php?kinouid=fk9020&sisetuid=50955,個人,堤 美登利,堤　美登利,"[歯科領域の一次診療, , ]","[顎関節症治療, , ]",na,na,"[駐車場がある（契約駐車場も含む）, 院内処方, ]",na,na,na,1.0|1|－,-|-|-,-|-|-,1.0|1|－,na,34.949712,139.122353,9,[歯科、小児歯科]
2023-09-16,南島歯科医院,伊東市吉田７５８－１２,静岡県伊東市吉田758-12,,2023年01月10日,http://www.qq.pref.shizuoka.jp/qq22/qqport/kenmintop/detail/fk1102.php?kinouid=fk9020&sisetuid=13598,個人,南島 文夫,南島　文夫,"[歯科領域の一次診療, , ]",na,na,na,"[駐車場がある（契約駐車場も含む）, 院内処方, 施設内における全面禁煙の実施, ]",na,na,na,1.0|1|－,-|-|-,-|-|-,na,30.2,34.942736,139.114601,10,[歯科]
2023-09-16,望月歯科医院,伊東市岡広町４－１８,静岡県伊東市岡広町4-18,,2023年05月09日,http://www.qq.pref.shizuoka.jp/qq22/qqport/kenmintop/detail/fk1102.php?kinouid=fk9020&sisetuid=13597,個人,望月研司,望月　研司,"[歯科領域の一次診療, 成人の歯科矯正治療, ]","[埋伏歯抜歯, 顎関節症治療, ]",na,na,"[駐車場がある（契約駐車場も含む）, 院内処方, 視覚障害者への配慮（施設内点字ブロックの設置）, 喫煙室の設置, ]",na,na,na,1.0|1|－,-|-|-,-|-|-,2.0|2|－,25.0,34.96826,139.090018,10,[歯科]
2023-09-16,モモセ歯科クリニック,伊東市大原３－１５－２０,静岡県伊東市大原三丁目15-20,,2022年12月28日,http://www.qq.pref.shizuoka.jp/qq22/qqport/kenmintop/detail/fk1102.php?kinouid=fk9020&sisetuid=13607,個人,百瀬 哲也,百瀬　哲也,"[歯科領域の一次診療, , ]",na,na,na,"[駐車場がある（契約駐車場も含む）, 院内処方, 施設内における全面禁煙の実施, ]",na,na,na,1.0|1|－,-|-|-,-|-|-,1.0|1|－,28.1,34.964481,139.104052,10,[歯科]
2023-09-16,八幡野歯科診療所,伊東市八幡野９８９－３,静岡県伊東市八幡野989-3,,2023年01月12日,http://www.qq.pref.shizuoka.jp/qq22/qqport/kenmintop/detail/fk1102.php?kinouid=fk9020&sisetuid=13583,個人,橋本 義徳,橋本　義徳,"[歯科領域の一次診療, , ]",na,na,na,"[駐車場がある（契約駐車場も含む）, 院内処方, 施設内における全面禁煙の実施, ]",na,na,na,2.0|2|－,-|-|-,-|-|-,na,11.2,34.874465,139.102827,10,[歯科]
2023-09-16,米山歯科,伊東市桜木町１－２－４,静岡県伊東市桜木町一丁目2-4,,2022年12月29日,http://www.qq.pref.shizuoka.jp/qq22/qqport/kenmintop/detail/fk1102.php?kinouid=fk9020&sisetuid=13576,個人,米山 典秀,米山　典秀,"[歯科領域の一次診療, , ]",na,na,na,"[駐車場がある（契約駐車場も含む）, 施設内における全面禁煙の実施, ]",na,na,na,1.0|1|－,-|-|-,-|-|-,na,10.0,34.967427,139.094101,10,[歯科]
2023-09-16,あぶの歯科,伊豆市修善寺２６,静岡県伊豆市修善寺26,,2023年01月11日,http://www.qq.pref.shizuoka.jp/qq22/qqport/kenmintop/detail/fk1102.php?kinouid=fk9020&sisetuid=13624,個人,阿武野 貴弘,阿武野　貴弘,"[歯科領域の一次診療, , ]","[顎関節症治療, , ]",na,na,"[駐車場がある（契約駐車場も含む）, 施設内における全面禁煙の実施, ]",na,na,na,3.0|2|1.0,-|-|-,-|-|-,2.0|－|2.0,40.0,34.98284,138.948474,10,[歯科、矯正歯科、小児歯科]
2023-09-16,池原歯科医院,伊豆市城５７－６,静岡県伊豆市城57-6,,2023年01月03日,http://www.qq.pref.shizuoka.jp/qq22/qqport/kenmintop/detail/fk1102.php?kinouid=fk9020&sisetuid=14503,個人,池原 秀樹,池原　秀樹,"[歯科領域の一次診療, , ]","[埋伏歯抜歯, , ]",na,na,"[駐車場がある（契約駐車場も含む）, 院内処方, 施設内における全面禁煙の実施, ]",na,na,na,1.0|1|－,-|-|-,-|-|-,1.0|1|－,32.0,34.959815,138.996638,10,[歯科、小児歯科]
2023-09-16,石井歯科医院,伊豆市柏久保１３０２,静岡県伊豆市柏久保1302,,2023年01月26日,http://www.qq.pref.shizuoka.jp/qq22/qqport/kenmintop/detail/fk1102.php?kinouid=fk9020&sisetuid=13609,個人,石井 康彦,石井　康彦,"[歯科領域の一次診療, 著しく歯科診療が困難な者, ]","[埋伏歯抜歯, 口唇、舌若しくは口腔粘膜の炎症又は外傷の治療, 顎関節症治療, , ]",na,na,"[駐車場がある（契約駐車場も含む）, 院内処方, 視覚障害者への配慮（音声による情報の伝達）, 聴覚障害者への配慮（手話による対応）, 聴覚障害者への配慮（施設内の情報の表示）, 車椅子利用者への配慮（施設内のバリアフリー化の実施）, 施設内における全面禁煙の実施, 医療に関する相談窓口の設置, ]",na,na,"[病院との連携, 訪問看護ステーションとの連携, 診療所との連携, 薬局との連携, ]",1.0|1|－,-|-|-,-|-|-,1.0|1|－,30.5,34.980118,138.950641,10,[歯科]
2023-09-16,遠藤歯科医院,伊豆市小立野５－１９,静岡県伊豆市小立野5-19,,2023年01月06日,http://www.qq.pref.shizuoka.jp/qq22/qqport/kenmintop/detail/fk1102.php?kinouid=fk9020&sisetuid=14516,個人,遠藤 郁夫,遠藤　郁夫,"[歯科領域の一次診療, , ]",na,na,na,"[駐車場がある（契約駐車場も含む）, 院内処方, 車椅子利用者への配慮（施設内のバリアフリー化の実施）, 施設内における全面禁煙の実施, ]",na,na,"[病院との連携, 薬局との連携, 診療所との連携, ]",1.0|1|－,-|-|-,-|-|-,na,8.0,34.978697,138.946368,10,[歯科]
2023-09-16,柿宇土歯科医院,伊豆市修善寺７６３－１,静岡県伊豆市修善寺763-1,,2023年01月23日,http://www.qq.pref.shizuoka.jp/qq22/qqport/kenmintop/detail/fk1102.php?kinouid=fk9020&sisetuid=13622,個人,カキウド ヤスヒコ,柿宇土　保彦,"[歯科領域の一次診療, , ]",na,na,na,"[駐車場がある（契約駐車場も含む）, 院内処方, ]",na,na,na,1.0|1|－,-|-|-,-|-|-,na,30.3,34.971674,138.93067,10,[歯科]
2023-09-16,小長谷歯科医院,伊豆市土肥２７６５－１１,静岡県伊豆市土肥2765-11,,2023年01月05日,http://www.qq.pref.shizuoka.jp/qq22/qqport/kenmintop/detail/fk1102.php?kinouid=fk9020&sisetuid=13616,個人,小長谷 伸夫,小長谷　伸夫,"[歯科領域の一次診療, 著しく歯科診療が困難な者, ]","[顎関節症治療, , ]",na,na,"[駐車場がある（契約駐車場も含む）, 院内処方, ]",na,na,"[病院との連携, ]",1.4|1|0.4,-|-|-,-|-|-,na,30.2,34.908706,138.791879,11,[歯科]
2023-09-16,つちや歯科医院,伊豆市湯ケ島２０８－１,静岡県伊豆市湯ｹ島208-1,,2023年01月13日,http://www.qq.pref.shizuoka.jp/qq22/qqport/kenmintop/detail/fk1102.php?kinouid=fk9020&sisetuid=14494,個人,土屋秀人,土屋秀人,"[歯科領域の一次診療, 著しく歯科診療が困難な者, 成人の歯科矯正治療, , ]","[埋伏歯抜歯, 口唇、舌若しくは口腔粘膜の炎症又は外傷の治療, 顎関節症治療, , ]",na,na,"[駐車場がある（契約駐車場も含む）, 院内処方, 視覚障害者への配慮（音声による情報の伝達）, 聴覚障害者への配慮（施設内の情報の表示）, 車椅子利用者への配慮（施設内のバリアフリー化の実施）, 車椅子対応トイレ, 施設内における全面禁煙の実施, ]",na,na,"[病院との連携, 居宅介護支援事業所との連携, 診療所との連携, ]",1.0|1|－,-|-|-,-|-|-,2.0|2|－,20.0,34.89396,138.929785,11,[歯科]
2023-09-16,農協共済中伊豆リハビリテーションセンター,伊豆市冷川１５２３－１０８,静岡県伊豆市冷川1523-108,,2023年02月21日,http://www.qq.pref.shizuoka.jp/qq22/qqport/kenmintop/detail/fk1102.php?kinouid=fk9020&sisetuid=10070,社会福祉法人,農協共済中伊豆リハビリテーションセンター理事長 野中 康,吉野　邦英,"[歯科領域の一次診療, 摂食機能障害の治療, 著しく歯科診療が困難な者, , ]",na,na,na,"[駐車場がある（契約駐車場も含む）, 院内処方, 視覚障害者への配慮（点字による表示）, 車椅子利用者への配慮（施設内のバリアフリー化の実施）, 車椅子対応トイレ, 施設内における全面禁煙の実施, 医療に関する相談窓口の設置, ]",na,na,na,na,-|-|-,-|-|-,na,39.5,34.924264,139.019749,11,[歯科]
2023-09-16,フジ歯科医院,伊豆市城６１－７,静岡県伊豆市城61-7,,2023年01月08日,http://www.qq.pref.shizuoka.jp/qq22/qqport/kenmintop/detail/fk1102.php?kinouid=fk9020&sisetuid=13617,個人,佐藤 卓紀,佐藤　卓紀,"[歯科領域の一次診療, , ]",na,na,na,"[駐車場がある（契約駐車場も含む）, 院内処方, 視覚障害者への配慮（音声による情報の伝達）, 聴覚障害者への配慮（施設内の情報の表示）, 車椅子利用者への配慮（施設内のバリアフリー化の実施）, 車椅子対応トイレ, 施設内における全面禁煙の実施, 医療に関する相談窓口の設置, ]",na,na,"[病院との連携, 居宅介護支援事業所との連携, 診療所との連携, 薬局との連携, 訪問看護ステーションとの連携, ]",1.0|1|－,-|-|-,-|-|-,2.0|2|－,25.1,34.959448,138.99658,11,[歯科、小児歯科]
2023-09-16,宮内歯科医院,伊豆市大平１６０－１３,静岡県伊豆市大平160-13,,2022年12月21日,http://www.qq.pref.shizuoka.jp/qq22/qqport/kenmintop/detail/fk1102.php?kinouid=fk9020&sisetuid=13618,個人,宮内 良二,宮内　良二,"[歯科領域の一次診療, , ]",na,na,na,"[駐車場がある（契約駐車場も含む）, 院内処方, 施設内における全面禁煙の実施, ]",na,na,na,2.0|2|－,-|-|-,-|-|-,－|－|－,25.0,34.959897,138.937226,11,[歯科、小児歯科]
2023-09-16,もり歯科クリニック,伊豆市柏久保５２３－１０,静岡県伊豆市柏久保523-10,,2022年12月24日,http://www.qq.pref.shizuoka.jp/qq22/qqport/kenmintop/detail/fk1102.php?kinouid=fk9020&sisetuid=51122,個人,森 飛鳥,モリアスカ,"[歯科領域の一次診療, , ]","[口唇、舌若しくは口腔粘膜の炎症又は外傷の治療, , ]",na,na,"[駐車場がある（契約駐車場も含む）, 院内処方, 車椅子利用者への配慮（施設内のバリアフリー化の実施）, 施設内における全面禁煙の実施, ]",na,na,"[病院との連携, 薬局との連携, ]",1.0|1|－,-|-|-,-|-|-,3.0|3|－,28.0,34.977411,138.949643,11,[歯科、小児歯科、歯科口腔外科]
2023-09-16,モリタデンタルクリニック,伊豆市八幡２５６－２,静岡県伊豆市八幡256-2,,2023年01月26日,http://www.qq.pref.shizuoka.jp/qq22/qqport/kenmintop/detail/fk1102.php?kinouid=fk9020&sisetuid=14475,医療法人,社団モリタデンタルクリニック,森田　敏之,"[歯科領域の一次診療, 成人の歯科矯正治療, ]","[埋伏歯抜歯, 口唇、舌若しくは口腔粘膜の炎症又は外傷の治療, 顎関節症治療, , ]",na,na,"[駐車場がある（契約駐車場も含む）, 院内処方, 車椅子利用者への配慮（施設内のバリアフリー化の実施）, 車椅子対応トイレ, 施設内における全面禁煙の実施, 医療に関する相談窓口の設置, ]",na,na,na,2.0|1|1.0,-|-|-,-|-|-,6.5|5|1.5,52.0,34.951122,138.994722,11,[歯科、小児歯科、矯正歯科]
2023-09-16,あおぞら歯科クリニック,伊豆の国市南條１９６－１ 高野コーポ ２Ｆ ２Ｂ,静岡県伊豆ﾉ国市南條196-1, 高野ｺｰﾎﾟ 2f 2b,2023年01月05日,http://www.qq.pref.shizuoka.jp/qq22/qqport/kenmintop/detail/fk1102.php?kinouid=fk9020&sisetuid=14485,個人,戸塚 武,戸塚　武,"[歯科領域の一次診療, , ]",na,na,na,"[駐車場がある（契約駐車場も含む）, 院内処方, 施設内における全面禁煙の実施, ]",na,na,na,1.0|1|－,-|-|-,-|-|-,1.0|1|－,22.7,35.037667,138.947194,11,[歯科]
2023-09-16,あおば歯科医院,伊豆の国市四日町５３０－１,静岡県伊豆ﾉ国市四日町530-1,,2023年01月11日,http://www.qq.pref.shizuoka.jp/qq22/qqport/kenmintop/detail/fk1102.php?kinouid=fk9020&sisetuid=13818,個人,鈴木 基志,鈴木　基志,"[歯科領域の一次診療, 著しく歯科診療が困難な者, ]","[埋伏歯抜歯, , ]",na,na,"[駐車場がある（契約駐車場も含む）, 院内処方, 車椅子利用者への配慮（施設内のバリアフリー化の実施）, ]",na,na,na,1.0|1|－,-|-|-,-|-|-,na,16.0,35.055832,138.943388,11,[歯科]
2023-09-16,池田歯科医院,伊豆の国市長岡１３８－５,静岡県伊豆ﾉ国市長岡138-5,,2023年01月08日,http://www.qq.pref.shizuoka.jp/qq22/qqport/kenmintop/detail/fk1102.php?kinouid=fk9020&sisetuid=14505,個人,池田 真王,池田　真王,"[歯科領域の一次診療, , ]","[埋伏歯抜歯, 口唇、舌若しくは口腔粘膜の炎症又は外傷の治療, 顎関節症治療, , ]",na,na,"[駐車場がある（契約駐車場も含む）, 院内処方, 視覚障害者への配慮（音声による情報の伝達）, 車椅子利用者への配慮（施設内のバリアフリー化の実施）, 施設内における全面禁煙の実施, ]",na,na,"[病院との連携, 診療所との連携, ]",na,-|-|-,-|-|-,na,na,35.03375,138.930168,11,[歯科、小児歯科、歯科口腔外科]
2023-09-16,伊豆医療福祉センター,伊豆の国市寺家２０２,静岡県伊豆ﾉ国市寺家202,,2023年01月29日,http://www.qq.pref.shizuoka.jp/qq22/qqport/kenmintop/detail/fk1102.php?kinouid=fk9020&sisetuid=10087,社会福祉法人,恩賜財団済生会支部 静岡県済生会,渡邉　誠司,"[著しく歯科診療が困難な者, , ]",na,na,na,"[駐車場がある（契約駐車場も含む）, 院内処方, 車椅子利用者への配慮（施設内のバリアフリー化の実施）, 車椅子対応トイレ, 施設内における全面禁煙の実施, ]",na,na,na,na,-|-|-,-|-|-,na,88.3,35.048638,138.943305,12,[歯科]
2023-09-16,梅原歯科医院,伊豆の国市大仁８８１,静岡県伊豆ﾉ国市大仁881,,2022年12月24日,http://www.qq.pref.shizuoka.jp/qq22/qqport/kenmintop/detail/fk1102.php?kinouid=fk9020&sisetuid=13623,医療法人,社団 裕雅郷,梅原　淑敬,"[歯科領域の一次診療, 成人の歯科矯正治療, ]","[埋伏歯抜歯, 口唇、舌若しくは口腔粘膜の炎症又は外傷の治療, 顎関節症治療, , ]",na,na,"[駐車場がある（契約駐車場も含む）, 院内処方, 車椅子利用者への配慮（施設内のバリアフリー化の実施）, 施設内における全面禁煙の実施, ]",na,na,"[病院との連携, 居宅介護支援事業所との連携, 診療所との連携, 薬局との連携, ]",1.0|1|－,-|-|-,-|-|-,1.0|1|－,35.0,34.990005,138.938474,12,[歯科、小児歯科]
2023-09-16,大森歯科医院,伊豆の国市長岡８１－１,静岡県伊豆ﾉ国市長岡81-1,,2023年01月17日,http://www.qq.pref.shizuoka.jp/qq22/qqport/kenmintop/detail/fk1102.php?kinouid=fk9020&sisetuid=13806,個人,大森 哲,大森　哲,"[歯科領域の一次診療, 成人の歯科矯正治療, ]","[顎関節症治療, , ]",na,na,"[駐車場がある（契約駐車場も含む）, 院内処方, 車椅子利用者への配慮（施設内のバリアフリー化の実施）, 施設内における全面禁煙の実施, ]",na,na,"[病院との連携, ]",1.2|1|0.2,-|-|-,-|-|-,0.6|－|0.6,10.0,35.031973,138.930557,12,[歯科、矯正歯科、小児歯科]
2023-09-16,小野歯科医院,伊豆の国市長岡１１０２,静岡県伊豆ﾉ国市長岡1102,,2023年01月30日,http://www.qq.pref.shizuoka.jp/qq22/qqport/kenmintop/detail/fk1102.php?kinouid=fk9020&sisetuid=13698,個人,小野 元弘,小野　元弘,"[歯科領域の一次診療, , ]",na,na,na,"[駐車場がある（契約駐車場も含む）, 院内処方, 施設内における全面禁煙の実施, ]",na,na,na,1.0|1|－,-|-|-,-|-|-,1.0|1|－,20.0,35.029223,138.93289,12,[歯科]
2023-09-16,カワムラ歯科医院,伊豆の国市田京６９８ー１０,静岡県伊豆ﾉ国市田京698-10,,2023年01月09日,http://www.qq.pref.shizuoka.jp/qq22/qqport/kenmintop/detail/fk1102.php?kinouid=fk9020&sisetuid=52072,個人,川村夏輝,川村夏輝,"[歯科領域の一次診療, 成人の歯科矯正治療, ]","[埋伏歯抜歯, , ]",na,na,"[駐車場がある（契約駐車場も含む）, 院内処方, 施設内における全面禁煙の実施, ]",na,na,"[病院との連携, 診療所との連携, ]",1.0|1|－,-|-|-,-|-|-,1.0|－|1.0,9.0,35.016639,138.946913,12,[歯科、小児歯科]
2023-09-16,神田歯科医院,伊豆の国市大仁４３７－１,静岡県伊豆ﾉ国市大仁437-1,,2022年12月26日,http://www.qq.pref.shizuoka.jp/qq22/qqport/kenmintop/detail/fk1102.php?kinouid=fk9020&sisetuid=13614,個人,神田 雄右,神田　雄右,"[歯科領域の一次診療, 成人の歯科矯正治療, ]","[顎関節症治療, , ]",na,na,"[駐車場がある（契約駐車場も含む）, 院内処方, 車椅子利用者への配慮（施設内のバリアフリー化の実施）, 施設内における全面禁煙の実施, ]",na,na,"[病院との連携, 診療所との連携, ]",2.1|2|0.1,-|-|-,-|-|-,4.0|2|2.0,30.0,34.995699,138.939002,12,[歯科、矯正歯科]
2023-09-16,椎貝歯科クリニック,伊豆の国市小坂４６８－１,静岡県伊豆ﾉ国市小坂468-1,,2022年12月21日,http://www.qq.pref.shizuoka.jp/qq22/qqport/kenmintop/detail/fk1102.php?kinouid=fk9020&sisetuid=14455,個人,椎貝 哲文,椎貝　哲文,"[歯科領域の一次診療, 成人の歯科矯正治療, ]","[埋伏歯抜歯, 顎関節症治療, ]",na,na,"[駐車場がある（契約駐車場も含む）, 院内処方, ]",na,na,na,1.0|1|－,-|-|-,-|-|-,na,2.5,35.020946,138.93514,12,[歯科、矯正歯科、小児歯科]
2023-09-16,杉本歯科,伊豆の国市古奈３０５－６,静岡県伊豆ﾉ国市古奈305-6,,2023年01月11日,http://www.qq.pref.shizuoka.jp/qq22/qqport/kenmintop/detail/fk1102.php?kinouid=fk9020&sisetuid=13697,個人,杉本 幸基,杉本　幸基,"[歯科領域の一次診療, 成人の歯科矯正治療, ]",na,na,na,"[駐車場がある（契約駐車場も含む）, 院内処方, 車椅子利用者への配慮（施設内のバリアフリー化の実施）, 施設内における全面禁煙の実施, ]",na,na,na,3.0|3|－,-|-|-,-|-|-,2.0|1|1.0,40.0,35.033639,138.937473,12,[歯科]
2023-09-16,鈴木歯科医院,伊豆の国市大仁５３２,静岡県伊豆ﾉ国市大仁532,,2023年04月03日,http://www.qq.pref.shizuoka.jp/qq22/qqport/kenmintop/detail/fk1102.php?kinouid=fk9020&sisetuid=13615,個人,鈴木 秀夫,鈴木　秀夫,"[歯科領域の一次診療, , ]",na,na,na,"[駐車場がある（契約駐車場も含む）, 院内処方, 車椅子利用者への配慮（施設内のバリアフリー化の実施）, 施設内における全面禁煙の実施, ]",na,na,"[病院との連携, ]",1.0|1|－,-|-|-,-|-|-,na,7.0,34.993227,138.938502,12,[歯科]
2023-09-16,塚本歯科医院,伊豆の国市大仁２８２,静岡県伊豆ﾉ国市大仁282,,2023年05月09日,http://www.qq.pref.shizuoka.jp/qq22/qqport/kenmintop/detail/fk1102.php?kinouid=fk9020&sisetuid=13611,個人,塚本 良,塚本　良,"[歯科領域の一次診療, , ]",na,na,na,"[駐車場がある（契約駐車場も含む）, 院内処方, ]",na,na,na,1.0|1|－,-|-|-,-|-|-,na,10.7,34.994421,138.939724,12,[歯科]
2023-09-16,寺田歯科,伊豆の国市中條２６７－５,静岡県伊豆ﾉ国市中條267-5,,2022年12月23日,http://www.qq.pref.shizuoka.jp/qq22/qqport/kenmintop/detail/fk1102.php?kinouid=fk9020&sisetuid=13792,個人,寺田 浩之,寺田　浩之,"[歯科領域の一次診療, 成人の歯科矯正治療, ]",na,na,na,"[駐車場がある（契約駐車場も含む）, 院内処方, 車椅子利用者への配慮（施設内のバリアフリー化の実施）, 施設内における全面禁煙の実施, ]",na,na,na,1.0|1|－,-|-|-,-|-|-,1.0|1|－,7.2,35.042472,138.942027,13,[歯科、矯正歯科]
2023-09-16,ナガオカデンタルクリニック,伊豆の国市長岡１３２２－９,静岡県伊豆ﾉ国市長岡1322-9,,2022年12月21日,http://www.qq.pref.shizuoka.jp/qq22/qqport/kenmintop/detail/fk1102.php?kinouid=fk9020&sisetuid=14482,個人,渥美 元康,渥美　元康,"[歯科領域の一次診療, 成人の歯科矯正治療, ]",na,na,na,"[院内処方, 施設内における全面禁煙の実施, ]",na,na,"[病院との連携, ]",1.2|1|0.2,-|-|-,-|-|-,2.0|－|2.0,20.0,35.029223,138.934529,13,[歯科、矯正歯科]
2023-09-16,西島歯科クリニック,伊豆の国市御門字横田５２－２,静岡県伊豆ﾉ国市御門字横田52-2,,2023年01月12日,http://www.qq.pref.shizuoka.jp/qq22/qqport/kenmintop/detail/fk1102.php?kinouid=fk9020&sisetuid=14472,個人,西島 宗宏,西島　宗宏,"[歯科領域の一次診療, 成人の歯科矯正治療, ]","[埋伏歯抜歯, , ]",na,na,"[駐車場がある（契約駐車場も含む）, 院内処方, 聴覚障害者への配慮（施設内の情報の表示）, 車椅子利用者への配慮（施設内のバリアフリー化の実施）, 施設内における全面禁煙の実施, ]",na,na,"[病院との連携, 診療所との連携, ]",1.0|1|－,-|-|-,-|-|-,－|－|－,20.0,35.016391,138.944834,13,[歯科、矯正歯科、小児歯科]
2023-09-16,にとう歯科クリニック,伊豆の国市奈古谷１３７０ー３,静岡県伊豆ﾉ国市奈古谷1370-3,,2022年06月16日,http://www.qq.pref.shizuoka.jp/qq22/qqport/kenmintop/detail/fk1102.php?kinouid=fk9020&sisetuid=52219,個人,二藤康,二藤　康,na,na,na,na,"[駐車場がある（契約駐車場も含む）, 院内処方, 車椅子利用者への配慮（施設内のバリアフリー化の実施）, 車椅子対応トイレ, 施設内における全面禁煙の実施, ]",na,na,na,1.0|1|－,-|-|-,-|-|-,2.0|1|1.0,na,35.071651,138.985808,13,[歯科、小児歯科]
2023-09-16,はる歯科クリニック,伊豆の国市南條４７９,静岡県伊豆ﾉ国市南條479,,2023年01月31日,http://www.qq.pref.shizuoka.jp/qq22/qqport/kenmintop/detail/fk1102.php?kinouid=fk9020&sisetuid=50196,個人,鈴木 晴治,鈴木晴治,"[歯科領域の一次診療, , ]","[埋伏歯抜歯, 口唇、舌若しくは口腔粘膜の炎症又は外傷の治療, 顎関節症治療, 唇顎口蓋裂治療, 顎骨骨折治療, 口腔領域の腫瘍の治療, ]",na,na,"[駐車場がある（契約駐車場も含む）, 院内処方, 視覚障害者への配慮（音声による情報の伝達）, 聴覚障害者への配慮（手話による対応）, 施設内における全面禁煙の実施, ]",na,na,"[薬局との連携, ]",1.0|1|－,-|-|-,-|-|-,na,5.3,35.039282,138.945525,13,[歯科]
2023-09-16,ひだまりおとなこども歯科,伊豆の国市吉田１５１－７,静岡県伊豆ﾉ国市吉田151-7,,2023年01月13日,http://www.qq.pref.shizuoka.jp/qq22/qqport/kenmintop/detail/fk1102.php?kinouid=fk9020&sisetuid=51784,個人,土屋 泰樹,土屋　泰樹,"[歯科領域の一次診療, 摂食機能障害の治療, 成人の歯科矯正治療, , ]","[埋伏歯抜歯, 口唇、舌若しくは口腔粘膜の炎症又は外傷の治療, 顎関節症治療, , ]",na,na,"[駐車場がある（契約駐車場も含む）, 院内処方, 視覚障害者への配慮（音声による情報の伝達）, 聴覚障害者への配慮（施設内の情報の表示）, 車椅子利用者への配慮（施設内のバリアフリー化の実施）, 施設内における全面禁煙の実施, ]",na,na,"[病院との連携, 居宅介護支援事業所との連携, 診療所との連携, 薬局との連携, ]",1.5|1|0.5,-|-|-,-|-|-,2.5|2|0.5,30.0,35.000148,138.937651,13,[歯科、小児歯科、矯正歯科、歯科口腔外科]
2023-09-16,ビタミンＢ歯科,伊豆の国市南條２１４－１,静岡県伊豆ﾉ国市南條214-1,,2023年01月31日,http://www.qq.pref.shizuoka.jp/qq22/qqport/kenmintop/detail/fk1102.php?kinouid=fk9020&sisetuid=14509,医療法人,社団 顕正会,石川　紘佑,"[歯科領域の一次診療, 成人の歯科矯正治療, ]",na,na,na,"[駐車場がある（契約駐車場も含む）, 院内処方, 車椅子利用者への配慮（施設内のバリアフリー化の実施）, 車椅子対応トイレ, 施設内における全面禁煙の実施, ]",na,na,"[病院との連携, 居宅介護支援事業所との連携, 診療所との連携, ]",2.0|1|1.0,-|-|-,-|-|-,3.0|－|3.0,37.8,35.036917,138.947444,13,[歯科、矯正歯科]
2023-09-16,堀江歯科医院,伊豆の国市原木１－１,静岡県伊豆ﾉ国市原木1-1,,2023年01月09日,http://www.qq.pref.shizuoka.jp/qq22/qqport/kenmintop/detail/fk1102.php?kinouid=fk9020&sisetuid=13772,個人,堀江 伴英,堀江　伴英,"[歯科領域の一次診療, , ]","[埋伏歯抜歯, 口唇、舌若しくは口腔粘膜の炎症又は外傷の治療, 顎関節症治療, , ]",na,na,"[駐車場がある（契約駐車場も含む）, 院内処方, 車椅子利用者への配慮（施設内のバリアフリー化の実施）, 施設内における全面禁煙の実施, ]",na,na,"[病院との連携, 居宅介護支援事業所との連携, 診療所との連携, 薬局との連携, 訪問看護ステーションとの連携, ]",1.0|1|－,-|-|-,-|-|-,2.0|2|－,23.0,35.057387,138.941332,13,[歯科、小児歯科、歯科口腔外科]
2023-09-16,まきの歯科クリニック,伊豆の国市田京３８－２,静岡県伊豆ﾉ国市田京38-2,,2023年01月11日,http://www.qq.pref.shizuoka.jp/qq22/qqport/kenmintop/detail/fk1102.php?kinouid=fk9020&sisetuid=14522,医療法人,社団ＰＡＳＴ,牧野　智優,"[歯科領域の一次診療, 成人の歯科矯正治療, ]","[埋伏歯抜歯, 口唇、舌若しくは口腔粘膜の炎症又は外傷の治療, 顎関節症治療, , ]",na,na,"[駐車場がある（契約駐車場も含む）, 院内処方, 車椅子利用者への配慮（施設内のバリアフリー化の実施）, 施設内における全面禁煙の実施, 医療に関する相談窓口の設置, ]",na,na,na,1.0|1|－,-|-|-,-|-|-,7.0|5|2.0,55.0,35.00867,138.949195,13,[歯科、矯正歯科、小児歯科、歯科口腔外科]
2023-09-16,村田歯科医院,伊豆の国市南條８３２－２,静岡県伊豆ﾉ国市南條832-2,,2022年12月26日,http://www.qq.pref.shizuoka.jp/qq22/qqport/kenmintop/detail/fk1102.php?kinouid=fk9020&sisetuid=13797,個人,村田 雄二郎,村田　雄二郎,"[歯科領域の一次診療, , ]",na,na,na,"[駐車場がある（契約駐車場も含む）, 院内処方, 車椅子利用者への配慮（施設内のバリアフリー化の実施）, 施設内における全面禁煙の実施, ]",na,na,"[病院との連携, 診療所との連携, ]",1.0|1|－,-|-|-,-|-|-,2.0|2|－,20.5,35.041833,138.948221,13,[歯科、小児歯科]
2023-09-16,山口歯科クリニック,伊豆の国市原木字上町１２３－１０,静岡県伊豆ﾉ国市原木字上町123-10,,2023年01月12日,http://www.qq.pref.shizuoka.jp/qq22/qqport/kenmintop/detail/fk1102.php?kinouid=fk9020&sisetuid=14486,個人,山口 貴司,山口　貴司,"[歯科領域の一次診療, , ]","[顎関節症治療, , ]",na,na,"[駐車場がある（契約駐車場も含む）, 院内処方, 聴覚障害者への配慮（施設内の情報の表示）, 車椅子利用者への配慮（施設内のバリアフリー化の実施）, 車椅子対応トイレ, 施設内における全面禁煙の実施, ]",na,na,"[病院との連携, 居宅介護支援事業所との連携, ]",1.0|1|－,-|-|-,-|-|-,5.0|1|4.0,50.0,35.060775,138.940638,14,[歯科、小児歯科]
2023-09-16,山田歯科クリニック,伊豆の国市南江間堤下１１０７－８,静岡県伊豆ﾉ国市南江間堤下1107-8,,2023年01月22日,http://www.qq.pref.shizuoka.jp/qq22/qqport/kenmintop/detail/fk1102.php?kinouid=fk9020&sisetuid=13788,個人,山田 秀司,山田　秀司,"[歯科領域の一次診療, , ]",na,na,na,"[駐車場がある（契約駐車場も含む）, 院内処方, 施設内における全面禁煙の実施, ]",na,na,na,1.2|1|0.2,-|-|-,-|-|-,3.2|3|0.2,35.0,35.05422,138.927778,14,[歯科]
2023-09-16,医療法人社団　吉本歯科医院,伊豆の国市古奈２２２,静岡県伊豆ﾉ国市古奈222,,2023年03月27日,http://www.qq.pref.shizuoka.jp/qq22/qqport/kenmintop/detail/fk1102.php?kinouid=fk9020&sisetuid=13794,医療法人,社団吉本歯科医院,吉本　智信,"[歯科領域の一次診療, 著しく歯科診療が困難な者, 成人の歯科矯正治療, , ]","[埋伏歯抜歯, 顎関節症治療, ]",na,na,"[駐車場がある（契約駐車場も含む）, 院内処方, 車椅子利用者への配慮（施設内のバリアフリー化の実施）, 車椅子対応トイレ, 施設内における全面禁煙の実施, ]",na,na,"[病院との連携, 薬局との連携, 診療所との連携, ]",1.0|1|－,-|-|-,-|-|-,4.0|3|1.0,60.0,35.035723,138.940111,14,[歯科]
2023-09-16,渡邊歯科医院,伊豆の国市四日町３９－１,静岡県伊豆ﾉ国市四日町39-1,,2022年12月31日,http://www.qq.pref.shizuoka.jp/qq22/qqport/kenmintop/detail/fk1102.php?kinouid=fk9020&sisetuid=14497,個人,渡邊 竜司,渡邊竜司,"[歯科領域の一次診療, 著しく歯科診療が困難な者, ]",na,na,na,"[駐車場がある（契約駐車場も含む）, 院内処方, 車椅子利用者への配慮（施設内のバリアフリー化の実施）, 車椅子対応トイレ, 施設内における全面禁煙の実施, ]",na,na,"[病院との連携, 薬局との連携, 診療所との連携, ]",1.0|1|－,-|-|-,-|-|-,1.5|1|0.5,28.5,35.054721,138.946721,14,[歯科]
2023-09-16,ｉ　ＤＥＮＴＡＬ　ＣＬＩＮＩＣ,沼津市大手町３丁目４－１２ 杉山ビル２階,静岡県沼津市大手町三丁目4-12, 杉山ﾋﾞﾙ2階,2022年12月27日,http://www.qq.pref.shizuoka.jp/qq22/qqport/kenmintop/detail/fk1102.php?kinouid=fk9020&sisetuid=50197,医療法人,社団 ｉＤＣ 理事長 庵原 英晃,庵原　英晃,"[歯科領域の一次診療, 成人の歯科矯正治療, ]",na,na,na,"[施設内における全面禁煙の実施, ]",na,na,na,2.0|2|－,-|-|-,-|-|-,4.0|4|－,18.7,35.102642,138.861182,14,[歯科、矯正歯科、歯科口腔外科、小児歯科]
2023-09-16,浅井歯科医院,沼津市浅間町２５１,静岡県沼津市浅間町251,,2022年12月21日,http://www.qq.pref.shizuoka.jp/qq22/qqport/kenmintop/detail/fk1102.php?kinouid=fk9020&sisetuid=13649,個人,浅井 茂,浅井　茂,"[歯科領域の一次診療, , ]",na,na,na,"[駐車場がある（契約駐車場も含む）, 施設内における全面禁煙の実施, ]",na,na,na,1.0|1|－,-|-|-,-|-|-,na,12.0,35.09427,138.855365,14,[歯科]
2023-09-16,医療法人社団高志会あさい歯科クリニック,沼津市錦町６４８－１８,静岡県沼津市錦町648-18,,2023年01月17日,http://www.qq.pref.shizuoka.jp/qq22/qqport/kenmintop/detail/fk1102.php?kinouid=fk9020&sisetuid=14513,個人,浅井 裕之,浅井　裕之,"[歯科領域の一次診療, 成人の歯科矯正治療, ]",na,na,na,"[駐車場がある（契約駐車場も含む）, 院内処方, 車椅子利用者への配慮（施設内のバリアフリー化の実施）, 施設内における全面禁煙の実施, 医療に関する相談窓口の設置, ]",na,na,"[病院との連携, 薬局との連携, 診療所との連携, ]",6.0|2|4.0,-|-|-,-|-|-,6.0|6|－,69.3,35.102186,138.851393,14,[歯科、小児歯科、矯正歯科]
2023-09-16,旭歯科医院,沼津市末広町６７,静岡県沼津市末広町67,,2022年12月22日,http://www.qq.pref.shizuoka.jp/qq22/qqport/kenmintop/detail/fk1102.php?kinouid=fk9020&sisetuid=13627,個人,矢部 達史朗,矢部　達史朗,"[歯科領域の一次診療, , ]",na,na,na,"[駐車場がある（契約駐車場も含む）, 院内処方, 施設内における全面禁煙の実施, 医療に関する相談窓口の設置, ]",na,na,na,2.0|2|－,-|-|-,-|-|-,na,13.0,35.09752,138.854699,14,[歯科]
2023-09-16,あさひデンタルクリニック,沼津市沼北町２－１１－１８,静岡県沼津市沼北町二丁目11-18,,2023年05月16日,http://www.qq.pref.shizuoka.jp/qq22/qqport/kenmintop/detail/fk1102.php?kinouid=fk9020&sisetuid=14536,個人,山本 記英子,山本　記英子,"[歯科領域の一次診療, 著しく歯科診療が困難な者, ]","[埋伏歯抜歯, 口唇、舌若しくは口腔粘膜の炎症又は外傷の治療, 顎関節症治療, , ]",na,na,"[駐車場がある（契約駐車場も含む）, 院内処方, 車椅子利用者への配慮（施設内のバリアフリー化の実施）, 車椅子対応トイレ, 施設内における全面禁煙の実施, ]",na,na,"[病院との連携, 診療所との連携, ]",1.0|1|－,-|-|-,-|-|-,1.0|－|1.0,43.0,35.115213,138.852254,14,[歯科、矯正歯科、小児歯科、歯科口腔外科]
2023-09-16,あしたか歯科医院,沼津市西椎路４８７－１,静岡県沼津市西椎路487-1,,2023年01月04日,http://www.qq.pref.shizuoka.jp/qq22/qqport/kenmintop/detail/fk1102.php?kinouid=fk9020&sisetuid=51095,個人,土屋 智昭,土屋　智昭,"[歯科領域の一次診療, , ]","[埋伏歯抜歯, 口唇、舌若しくは口腔粘膜の炎症又は外傷の治療, 顎関節症治療, , ]",na,na,"[駐車場がある（契約駐車場も含む）, 院内処方, 施設内における全面禁煙の実施, ]",na,na,"[病院との連携, ]",2.0|2|－,-|-|-,-|-|-,0.5|－|0.5,25.0,35.125767,138.828092,14,[歯科、歯科口腔外科、小児歯科]
2023-09-16,アップル歯科医院,沼津市新宿町８－３,静岡県沼津市新宿町8-3,,2023年01月06日,http://www.qq.pref.shizuoka.jp/qq22/qqport/kenmintop/detail/fk1102.php?kinouid=fk9020&sisetuid=13747,個人,小野 龍,小野　龍,"[歯科領域の一次診療, 著しく歯科診療が困難な者, ]","[埋伏歯抜歯, 顎関節症治療, ]",na,na,"[駐車場がある（契約駐車場も含む）, 院内処方, 施設内における全面禁煙の実施, ]",na,na,"[病院との連携, ]",1.0|1|－,-|-|-,-|-|-,2.0|－|2.0,30.0,35.107436,138.859559,15,[歯科、小児歯科]
2023-09-16,あん歯科クリニック,沼津市下香貫字樋ノ口１７１８番８,静岡県沼津市下香貫字樋ﾉ口1718-8,,2022年12月27日,http://www.qq.pref.shizuoka.jp/qq22/qqport/kenmintop/detail/fk1102.php?kinouid=fk9020&sisetuid=51823,個人,後藤 杏子,後藤　杏子,"[歯科領域の一次診療, 成人の歯科矯正治療, ]",na,na,na,"[駐車場がある（契約駐車場も含む）, 院内処方, 車椅子利用者への配慮（施設内のバリアフリー化の実施）, 施設内における全面禁煙の実施, ]",na,na,na,2.0|1|1.0,-|-|-,-|-|-,2.0|－|2.0,20.0,35.076544,138.874905,15,[歯科、小児歯科、矯正歯科]
2023-09-16,飯島歯科医院,沼津市五月町５－１１,静岡県沼津市五月町5-11,,2022年12月24日,http://www.qq.pref.shizuoka.jp/qq22/qqport/kenmintop/detail/fk1102.php?kinouid=fk9020&sisetuid=13786,個人,飯島 浩人,飯島　浩人,"[歯科領域の一次診療, , ]",na,na,na,"[駐車場がある（契約駐車場も含む）, 施設内における全面禁煙の実施, ]",na,na,"[病院との連携, 診療所との連携, ]",1.5|1|0.5,-|-|-,-|-|-,0.5|－|0.5,25.8,35.115324,138.862531,15,[歯科]
2023-09-16,いくこ歯科医院,沼津市原６５５－１５,静岡県沼津市原655-15,,2023年01月06日,http://www.qq.pref.shizuoka.jp/qq22/qqport/kenmintop/detail/fk1102.php?kinouid=fk9020&sisetuid=13834,個人,町田 維久子,町田　維久子,"[歯科領域の一次診療, , ]","[埋伏歯抜歯, , ]",na,na,"[駐車場がある（契約駐車場も含む）, 院内処方, 車椅子利用者への配慮（施設内のバリアフリー化の実施）, 車椅子対応トイレ, 施設内における全面禁煙の実施, ]",na,na,"[病院との連携, ]",1.0|1|－,-|-|-,-|-|-,1.0|－|1.0,22.5,35.127543,138.784398,15,[歯科、小児歯科]
2023-09-16,池田歯科医院,沼津市北高島町１３－３０,静岡県沼津市北高島町13-30,,2022年12月27日,http://www.qq.pref.shizuoka.jp/qq22/qqport/kenmintop/detail/fk1102.php?kinouid=fk9020&sisetuid=14463,個人,池田 康男,池田　康男,"[歯科領域の一次診療, , ]","[埋伏歯抜歯, 顎関節症治療, ]",na,na,"[駐車場がある（契約駐車場も含む）, 院内処方, 施設内における全面禁煙の実施, ]",na,na,"[病院との連携, ]",2.0|2|－,-|-|-,-|-|-,6.0|3|3.0,35.0,35.112491,138.856809,15,[歯科、歯科口腔外科]
2023-09-16,石田歯科医院,沼津市岡一色１２８－２１,静岡県沼津市岡一色128-21,,2023年04月27日,http://www.qq.pref.shizuoka.jp/qq22/qqport/kenmintop/detail/fk1102.php?kinouid=fk9020&sisetuid=13731,個人,石田美幸,石田美幸,"[歯科領域の一次診療, , ]",na,na,na,"[駐車場がある（契約駐車場も含む）, 院内処方, 車椅子利用者への配慮（施設内のバリアフリー化の実施）, 施設内における全面禁煙の実施, ]",na,na,"[病院との連携, 診療所との連携, ]",1.0|1|－,-|-|-,-|-|-,－|－|－,7.0,35.127295,138.880779,15,[歯科]
2023-09-16,石原矯正歯科,沼津市米山町２－７ 石原ビル２Ｆ,静岡県沼津市米山町2-7, 石原ﾋﾞﾙ2f,2022年12月23日,http://www.qq.pref.shizuoka.jp/qq22/qqport/kenmintop/detail/fk1102.php?kinouid=fk9020&sisetuid=14521,個人,石原 誠一朗,石原　誠一朗,"[成人の歯科矯正治療, , ]",na,na,na,"[駐車場がある（契約駐車場も含む）, 車椅子利用者への配慮（施設内のバリアフリー化の実施）, 施設内における全面禁煙の実施, ]",na,na,na,2.0|1|1.0,-|-|-,-|-|-,1.0|1|－,15.0,35.105325,138.862892,15,[矯正歯科]
2023-09-16,いしわた歯科医院,沼津市大手町４－３－４０,静岡県沼津市大手町四丁目3-40,,2023年04月17日,http://www.qq.pref.shizuoka.jp/qq22/qqport/kenmintop/detail/fk1102.php?kinouid=fk9020&sisetuid=13765,個人,石渡 浩貴,石渡　浩貴,"[歯科領域の一次診療, , ]",na,na,na,"[駐車場がある（契約駐車場も含む）, 視覚障害者への配慮（音声による情報の伝達）, 施設内における全面禁煙の実施, ]",na,na,"[病院との連携, 診療所との連携, ]",1.0|1|－,-|-|-,-|-|-,1.0|1|－,15.3,35.098131,138.859282,15,[歯科、小児歯科]
2023-09-16,石渡歯科クリニック,沼津市東椎路８８－１１,静岡県沼津市東椎路88-11,,2023年01月15日,http://www.qq.pref.shizuoka.jp/qq22/qqport/kenmintop/detail/fk1102.php?kinouid=fk9020&sisetuid=13628,個人,石渡 崇徳,石渡　崇徳,"[歯科領域の一次診療, , ]",na,na,na,"[駐車場がある（契約駐車場も含む）, 車椅子利用者への配慮（施設内のバリアフリー化の実施）, 施設内における全面禁煙の実施, ]",na,na,"[病院との連携, 薬局との連携, 診療所との連携, ]",2.0|1|1.0,-|-|-,-|-|-,4.0|3|1.0,34.0,35.122267,138.844226,15,[歯科]
2023-09-16,伊東歯科医院,沼津市大塚字道の上１４１－１,静岡県沼津市大塚字道ﾉ上141-1,,2022年12月21日,http://www.qq.pref.shizuoka.jp/qq22/qqport/kenmintop/detail/fk1102.php?kinouid=fk9020&sisetuid=13773,個人,伊東 邦彦,伊東　邦彦,"[歯科領域の一次診療, , ]","[顎関節症治療, , ]",na,na,"[駐車場がある（契約駐車場も含む）, 院内処方, 車椅子利用者への配慮（施設内のバリアフリー化の実施）, 施設内における全面禁煙の実施, ]",na,na,"[病院との連携, 診療所との連携, ]",1.0|1|－,-|-|-,-|-|-,－|－|－,6.0,35.121017,138.808701,15,[歯科、小児歯科]
2023-09-16,稲玉歯科医院,沼津市大岡１８８１－３ ベルメゾン９３’ １０１,静岡県沼津市大岡1881-3, ﾍﾞﾙﾒｿﾞﾝ93’ 101,2023年05月17日,http://www.qq.pref.shizuoka.jp/qq22/qqport/kenmintop/detail/fk1102.php?kinouid=fk9020&sisetuid=13813,個人,稲玉 圭輔,稲玉　圭輔,"[歯科領域の一次診療, , ]",na,na,na,"[駐車場がある（契約駐車場も含む）, 院内処方, 車椅子利用者への配慮（施設内のバリアフリー化の実施）, 施設内における全面禁煙の実施, ]",na,na,"[病院との連携, 訪問看護ステーションとの連携, 診療所との連携, 薬局との連携, ]",1.0|1|－,-|-|-,-|-|-,1.0|1|－,16.1,35.111408,138.86878,16,[歯科]
2023-09-16,庵原歯科医院,沼津市添地町１４９,静岡県沼津市添地町149,,2023年04月11日,http://www.qq.pref.shizuoka.jp/qq22/qqport/kenmintop/detail/fk1102.php?kinouid=fk9020&sisetuid=13646,医療法人,社団心邦会,庵原　邦彦,"[歯科領域の一次診療, , ]","[埋伏歯抜歯, 顎関節症治療, ]",na,na,"[駐車場がある（契約駐車場も含む）, 施設内における全面禁煙の実施, ]",na,na,na,1.0|1|－,-|-|-,-|-|-,0.4|－|0.4,13.2,35.100825,138.856865,16,[歯科]
2023-09-16,庵原町中歯科医院,沼津市原町中１－３－１０,静岡県沼津市原町中一丁目3-10,,2023年01月13日,http://www.qq.pref.shizuoka.jp/qq22/qqport/kenmintop/detail/fk1102.php?kinouid=fk9020&sisetuid=14456,個人,庵原 明倫,庵原　明倫,"[歯科領域の一次診療, , ]",na,na,na,"[駐車場がある（契約駐車場も含む）, 施設内における全面禁煙の実施, ]",na,na,"[病院との連携, 居宅介護支援事業所との連携, 診療所との連携, 薬局との連携, 訪問看護ステーションとの連携, ]",1.0|1|－,-|-|-,-|-|-,－|－|－,15.0,35.130515,138.795813,16,[歯科]
2023-09-16,ウエダ歯科,沼津市平町１５－１０ 上田ビル２Ｆ,静岡県沼津市平町15-10, 上田ﾋﾞﾙ2f,2023年03月02日,http://www.qq.pref.shizuoka.jp/qq22/qqport/kenmintop/detail/fk1102.php?kinouid=fk9020&sisetuid=13783,個人,上田 貴彦,上田　貴彦,"[歯科領域の一次診療, 著しく歯科診療が困難な者, 成人の歯科矯正治療, , ]","[埋伏歯抜歯, 口唇、舌若しくは口腔粘膜の炎症又は外傷の治療, 顎関節症治療, , ]",na,na,"[駐車場がある（契約駐車場も含む）, 院内処方, 車椅子対応トイレ, 施設内における全面禁煙の実施, ]",na,na,"[病院との連携, 薬局との連携, 診療所との連携, ]",1.0|1|－,-|-|-,-|-|-,3.5|1|2.5,30.0,35.099909,138.865837,16,[歯科、矯正歯科、小児歯科]
2023-09-16,植松歯科医院,沼津市若葉町１７－２７,静岡県沼津市若葉町17-27,,2023年01月11日,http://www.qq.pref.shizuoka.jp/qq22/qqport/kenmintop/detail/fk1102.php?kinouid=fk9020&sisetuid=13664,個人,植松 紳一郎,植松　紳一郎,"[歯科領域の一次診療, 著しく歯科診療が困難な者, ]","[顎関節症治療, 口唇、舌若しくは口腔粘膜の炎症又は外傷の治療, ]",na,na,"[駐車場がある（契約駐車場も含む）, 院内処方, 車椅子利用者への配慮（施設内のバリアフリー化の実施）, 車椅子対応トイレ, 施設内における全面禁煙の実施, 医療に関する相談窓口の設置, ]",na,na,"[病院との連携, ]",1.5|1|0.5,-|-|-,-|-|-,5.0|5|－,50.0,35.120379,138.856642,16,[歯科、小児歯科、障害者歯科]
2023-09-16,牛臥歯科診療所,沼津市下香貫塩場３０７９－１１,静岡県沼津市下香貫塩場3079-11,,2022年12月24日,http://www.qq.pref.shizuoka.jp/qq22/qqport/kenmintop/detail/fk1102.php?kinouid=fk9020&sisetuid=13640,個人,白井 卓,白井　卓,"[歯科領域の一次診療, , ]",na,na,na,"[駐車場がある（契約駐車場も含む）, 車椅子利用者への配慮（施設内のバリアフリー化の実施）, 施設内における全面禁煙の実施, ]",na,na,"[病院との連携, 薬局との連携, ]",2.0|2|－,-|-|-,-|-|-,1.0|1|－,28.8,35.077661,138.86781,16,[歯科]
2023-09-16,梅田歯科医院,沼津市米山町２－２９,静岡県沼津市米山町2-29,,2023年04月11日,http://www.qq.pref.shizuoka.jp/qq22/qqport/kenmintop/detail/fk1102.php?kinouid=fk9020&sisetuid=13814,個人,梅田博彦,梅田　博彦,"[歯科領域の一次診療, , ]","[埋伏歯抜歯, 顎関節症治療, ]",na,na,"[駐車場がある（契約駐車場も含む）, 院内処方, 車椅子利用者への配慮（施設内のバリアフリー化の実施）, 施設内における全面禁煙の実施, ]",na,na,"[病院との連携, ]",1.0|1|－,-|-|-,-|-|-,3.5|3|0.5,37.6,35.104742,138.862892,16,[歯科]
2023-09-16,雲野歯科医院,沼津市山王台１番６号,静岡県沼津市山王台1-6,,2023年01月29日,http://www.qq.pref.shizuoka.jp/qq22/qqport/kenmintop/detail/fk1102.php?kinouid=fk9020&sisetuid=13819,個人,雲野 孝,雲野　孝,"[歯科領域の一次診療, , ]","[埋伏歯抜歯, 口唇、舌若しくは口腔粘膜の炎症又は外傷の治療, 顎関節症治療, , ]",na,na,"[駐車場がある（契約駐車場も含む）, ]",na,na,"[訪問看護ステーションとの連携, ]",1.0|1|－,-|-|-,-|-|-,1.0|1|－,17.5,35.103825,138.867392,16,[歯科]
2023-09-16,えがわ歯科矯正歯科,沼津市高島本町１１－１５ えがわビル１Ｆ,静岡県沼津市高島本町11-15, ｴｶﾞﾜﾋﾞﾙ1f,2023年05月15日,http://www.qq.pref.shizuoka.jp/qq22/qqport/kenmintop/detail/fk1102.php?kinouid=fk9020&sisetuid=13829,個人,頴川世,頴川　世,"[歯科領域の一次診療, 唇顎口蓋裂の歯科矯正治療, 成人の歯科矯正治療, 顎変形症の歯科矯正治療, ]","[埋伏歯抜歯, 口唇、舌若しくは口腔粘膜の炎症又は外傷の治療, 顎関節症治療, 唇顎口蓋裂治療, 顎変形症治療, , ]",na,na,"[駐車場がある（契約駐車場も含む）, 車椅子利用者への配慮（施設内のバリアフリー化の実施）, 施設内における全面禁煙の実施, ]",na,na,na,1.0|1|－,-|-|-,-|-|-,na,20.0,35.109602,138.861114,16,[歯科、矯正歯科]
2023-09-16,エクセル歯科,沼津市原町中２－１３－２６,静岡県沼津市原町中二丁目13-26,,2023年01月31日,http://www.qq.pref.shizuoka.jp/qq22/qqport/kenmintop/detail/fk1102.php?kinouid=fk9020&sisetuid=14500,医療法人,社団 顕正会,宮尾　陽久,"[歯科領域の一次診療, 成人の歯科矯正治療, ]",na,na,na,"[駐車場がある（契約駐車場も含む）, 院内処方, 施設内における全面禁煙の実施, ]",na,na,"[病院との連携, ]",1.0|1|－,-|-|-,-|-|-,1.0|1|－,26.1,35.128627,138.800257,16,[歯科、矯正歯科]
2023-09-16,大川矯正歯科クリニック,沼津市杉崎町７－５,静岡県沼津市杉崎町7-5,,2023年01月30日,http://www.qq.pref.shizuoka.jp/qq22/qqport/kenmintop/detail/fk1102.php?kinouid=fk9020&sisetuid=13753,医療法人,社団 進美会,大川　覚,"[成人の歯科矯正治療, 顎変形症の歯科矯正治療, 唇顎口蓋裂の歯科矯正治療, , ]",na,na,na,"[駐車場がある（契約駐車場も含む）, 施設内における全面禁煙の実施, ]",na,na,"[病院との連携, 診療所との連携, ]",1.0|1|－,-|-|-,-|-|-,3.0|3|－,15.3,35.105714,138.865531,17,[矯正歯科]
2023-09-16,大島歯科医院,沼津市筒井町２－６,静岡県沼津市筒井町2-6,,2023年03月24日,http://www.qq.pref.shizuoka.jp/qq22/qqport/kenmintop/detail/fk1102.php?kinouid=fk9020&sisetuid=13821,個人,大島和彦,大島　和彦,"[歯科領域の一次診療, 摂食機能障害の治療, 著しく歯科診療が困難な者, , ]","[埋伏歯抜歯, 口唇、舌若しくは口腔粘膜の炎症又は外傷の治療, 顎関節症治療, , ]",na,na,"[駐車場がある（契約駐車場も含む）, 院内処方, 車椅子利用者への配慮（施設内のバリアフリー化の実施）, 車椅子対応トイレ, 施設内における全面禁煙の実施, ]",na,na,"[病院との連携, 居宅介護支援事業所との連携, 診療所との連携, 薬局との連携, 訪問看護ステーションとの連携, ]",2.0|2|－,-|-|-,-|-|-,3.0|2|1.0,30.0,35.119212,138.86353,17,[歯科、歯科口腔外科]
2023-09-16,おおひら歯科,沼津市大平１８１１－３,静岡県沼津市大平1811-3,,2023年01月23日,http://www.qq.pref.shizuoka.jp/qq22/qqport/kenmintop/detail/fk1102.php?kinouid=fk9020&sisetuid=50206,個人,潮木 和也,潮木　和也,"[歯科領域の一次診療, , ]",na,na,na,"[駐車場がある（契約駐車場も含む）, 院内処方, 車椅子利用者への配慮（施設内のバリアフリー化の実施）, 施設内における全面禁煙の実施, ]",na,na,na,1.0|1|－,-|-|-,-|-|-,na,6.0,35.072716,138.909842,17,[歯科]
2023-09-16,岡山デンタルクリニック,沼津市西椎路１１８－１,静岡県沼津市西椎路118-1,,2022年12月24日,http://www.qq.pref.shizuoka.jp/qq22/qqport/kenmintop/detail/fk1102.php?kinouid=fk9020&sisetuid=13791,個人,岡山 一成,岡山　一成,"[歯科領域の一次診療, 著しく歯科診療が困難な者, ]","[埋伏歯抜歯, , ]",na,na,"[駐車場がある（契約駐車場も含む）, 院内処方, 車椅子利用者への配慮（施設内のバリアフリー化の実施）, 施設内における全面禁煙の実施, ]",na,na,"[病院との連携, 居宅介護支援事業所との連携, 診療所との連携, 薬局との連携, 訪問看護ステーションとの連携, ]",1.0|1|－,-|-|-,-|-|-,2.0|2|－,32.7,35.123072,138.822422,17,[歯科、小児歯科]
2023-09-16,おざわ歯科医院,沼津市大岡１５４１－４,静岡県沼津市大岡1541-4,,2023年01月19日,http://www.qq.pref.shizuoka.jp/qq22/qqport/kenmintop/detail/fk1102.php?kinouid=fk9020&sisetuid=13741,個人,小澤 光浩,小澤　光浩,"[歯科領域の一次診療, 著しく歯科診療が困難な者, ]",na,na,na,"[駐車場がある（契約駐車場も含む）, 院内処方, 施設内における全面禁煙の実施, ]",na,na,na,2.0|2|－,-|-|-,-|-|-,1.0|1|－,28.5,35.10052,138.871753,17,[歯科、小児歯科]
2023-09-16,小野歯科医院,沼津市高島町８－１,静岡県沼津市高島町8-1,,2023年01月12日,http://www.qq.pref.shizuoka.jp/qq22/qqport/kenmintop/detail/fk1102.php?kinouid=fk9020&sisetuid=13630,個人,小野 茂,小野　茂,"[歯科領域の一次診療, 成人の歯科矯正治療, ]",na,na,na,"[駐車場がある（契約駐車場も含む）, 院内処方, 施設内における全面禁煙の実施, ]",na,na,"[病院との連携, 薬局との連携, 診療所との連携, ]",1.0|1|－,-|-|-,-|-|-,2.0|2|－,30.0,35.10488,138.860115,17,[歯科、矯正歯科、小児歯科]
2023-09-16,片岡歯科口腔外科醫院,沼津市下香貫樋ノ口１７１０－２,静岡県沼津市下香貫樋ﾉ口1710-2,,2023年01月03日,http://www.qq.pref.shizuoka.jp/qq22/qqport/kenmintop/detail/fk1102.php?kinouid=fk9020&sisetuid=51949,個人,片岡 一行,片岡　一行,"[歯科領域の一次診療, , ]","[埋伏歯抜歯, 口唇、舌若しくは口腔粘膜の炎症又は外傷の治療, 顎関節症治療, 口腔領域の腫瘍の治療, 顎骨骨折治療, , ]",na,na,"[駐車場がある（契約駐車場も含む）, 車椅子利用者への配慮（施設内のバリアフリー化の実施）, 施設内における全面禁煙の実施, ]",na,na,"[病院との連携, 薬局との連携, 診療所との連携, ]",2.0|2|－,-|-|-,-|-|-,na,29.3,35.075317,138.875356,17,[歯科、歯科口腔外科、小児歯科、矯正歯科]
2023-09-16,片浜ベース歯科,沼津市松長９２１－６ ドリーミー片浜１０１,静岡県沼津市松長921-6, ﾄﾞﾘｰﾐｰ片浜101,2022年12月23日,http://www.qq.pref.shizuoka.jp/qq22/qqport/kenmintop/detail/fk1102.php?kinouid=fk9020&sisetuid=51551,個人,芹澤 泰斗,芹澤　泰斗,"[歯科領域の一次診療, , ]",na,na,na,"[院内処方, 車椅子利用者への配慮（施設内のバリアフリー化の実施）, 車椅子対応トイレ, 施設内における全面禁煙の実施, ]",na,na,"[病院との連携, ]",1.0|1|－,-|-|-,-|-|-,1.0|1|－,20.0,35.120973,138.821417,17,[歯科]
2023-09-16,加藤歯科医院,沼津市北今沢１６－１,静岡県沼津市北今沢16-1,,2023年03月24日,http://www.qq.pref.shizuoka.jp/qq22/qqport/kenmintop/detail/fk1102.php?kinouid=fk9020&sisetuid=13742,個人,加藤 靖,加藤　靖,"[歯科領域の一次診療, , ]","[埋伏歯抜歯, , ]",na,na,"[駐車場がある（契約駐車場も含む）, 院内処方, 施設内における全面禁煙の実施, ]",na,na,na,1.0|1|－,-|-|-,-|-|-,na,19.1,35.124628,138.817062,17,[歯科]
2023-09-16,カナリヤ歯科医院,沼津市添地町４１番地,静岡県沼津市添地町41,,2023年06月30日,http://www.qq.pref.shizuoka.jp/qq22/qqport/kenmintop/detail/fk1102.php?kinouid=fk9020&sisetuid=52115,個人,増山聡一郎,増山聡一郎,"[歯科領域の一次診療, 成人の歯科矯正治療, ]","[顎関節症治療, , ]",na,na,"[駐車場がある（契約駐車場も含む）, 院内処方, 施設内における全面禁煙の実施, ]",na,na,na,2.0|1|1.0,-|-|-,-|-|-,na,22.0,35.101893,138.85566,17,[歯科、小児歯科、歯科口腔外科、矯正歯科]
2023-09-16,鎌田歯科医院,沼津市御幸町２４－４６,静岡県沼津市御幸町24-46,,2022年12月21日,http://www.qq.pref.shizuoka.jp/qq22/qqport/kenmintop/detail/fk1102.php?kinouid=fk9020&sisetuid=14489,個人,鎌田 大輔,鎌田大輔,"[歯科領域の一次診療, 成人の歯科矯正治療, ]","[顎関節症治療, 口唇、舌若しくは口腔粘膜の炎症又は外傷の治療, ]",na,na,"[駐車場がある（契約駐車場も含む）, 院内処方, 施設内における全面禁煙の実施, ]",na,na,na,2.0|2|－,-|-|-,-|-|-,－|－|－,14.0,35.093021,138.864476,18,[歯科、小児歯科、歯科口腔外科]
2023-09-16,亀井歯科医院,沼津市大手町１－１－９,静岡県沼津市大手町一丁目1-9,,2022年12月26日,http://www.qq.pref.shizuoka.jp/qq22/qqport/kenmintop/detail/fk1102.php?kinouid=fk9020&sisetuid=13712,個人,亀井 正仁,亀井　正仁,"[歯科領域の一次診療, 著しく歯科診療が困難な者, ]","[埋伏歯抜歯, 口唇、舌若しくは口腔粘膜の炎症又は外傷の治療, 顎関節症治療, , ]",na,na,"[駐車場がある（契約駐車場も含む）, 院内処方, 聴覚障害者への配慮（施設内の情報の表示）, 車椅子利用者への配慮（施設内のバリアフリー化の実施）, 車椅子対応トイレ, 施設内における全面禁煙の実施, 医療に関する相談窓口の設置, ]",na,na,"[病院との連携, 居宅介護支援事業所との連携, 診療所との連携, 薬局との連携, ]",1.0|1|－,-|-|-,-|-|-,4.0|3|1.0,25.0,35.102686,138.856921,18,[歯科、小児歯科]
2023-09-16,川口歯科医院,沼津市高島町２１－２ 川口歯科ビル,静岡県沼津市高島町21-2, 川口歯科ﾋﾞﾙ,2023年01月06日,http://www.qq.pref.shizuoka.jp/qq22/qqport/kenmintop/detail/fk1102.php?kinouid=fk9020&sisetuid=13654,個人,川口 不二夫,川口　不二夫,"[歯科領域の一次診療, , ]",na,na,na,"[駐車場がある（契約駐車場も含む）, 施設内における全面禁煙の実施, ]",na,na,"[病院との連携, ]",1.0|1|－,-|-|-,-|-|-,－|－|－,4.5,35.104714,138.857893,18,[歯科]
2023-09-16,神田歯科医院,沼津市大手町５－６－２,静岡県沼津市大手町五丁目6-2,,2023年01月31日,http://www.qq.pref.shizuoka.jp/qq22/qqport/kenmintop/detail/fk1102.php?kinouid=fk9020&sisetuid=13658,個人,神田 博司,神田　博司,"[歯科領域の一次診療, 著しく歯科診療が困難な者, ]","[埋伏歯抜歯, 顎関節症治療, ]",na,na,"[駐車場がある（契約駐車場も含む）, 院内処方, 車椅子利用者への配慮（施設内のバリアフリー化の実施）, 施設内における全面禁煙の実施, ]",na,na,na,1.0|1|－,-|-|-,-|-|-,na,8.0,35.099798,138.85804,18,[歯科]
2023-09-16,城内歯科医院,沼津市三枚橋町１３－９,静岡県沼津市三枚橋町13-9,,2023年05月11日,http://www.qq.pref.shizuoka.jp/qq22/qqport/kenmintop/detail/fk1102.php?kinouid=fk9020&sisetuid=13633,個人,城内 廣人,城内　廣人,"[歯科領域の一次診療, , ]",na,na,na,"[駐車場がある（契約駐車場も含む）, 院内処方, 施設内における全面禁煙の実施, ]",na,na,"[病院との連携, 薬局との連携, ]",1.0|1|－,-|-|-,-|-|-,na,10.5,35.099409,138.863976,18,[歯科、小児歯科]
2023-09-16,きくた歯科医院,沼津市下河原町三丁目１１番地１５,静岡県沼津市下河原町三丁目11-15,,2023年04月01日,http://www.qq.pref.shizuoka.jp/qq22/qqport/kenmintop/detail/fk1102.php?kinouid=fk9020&sisetuid=13812,個人,菊田 泰生,菊田　泰生,"[歯科領域の一次診療, , ]","[埋伏歯抜歯, 口唇、舌若しくは口腔粘膜の炎症又は外傷の治療, 顎関節症治療, , ]",na,na,"[駐車場がある（契約駐車場も含む）, 院内処方, 車椅子利用者への配慮（施設内のバリアフリー化の実施）, 施設内における全面禁煙の実施, 医療に関する相談窓口の設置, ]",na,na,"[病院との連携, 診療所との連携, ]",1.0|1|－,-|-|-,-|-|-,1.9|1|0.9,35.5,35.088271,138.857005,18,[歯科、小児歯科]
2023-09-16,きのした歯科クリニック,沼津市岡宮１１２４－２,静岡県沼津市岡宮1124-2,,2023年01月06日,http://www.qq.pref.shizuoka.jp/qq22/qqport/kenmintop/detail/fk1102.php?kinouid=fk9020&sisetuid=51074,個人,木下 陶益,木下　陶益,"[歯科領域の一次診療, , ]",na,na,na,"[駐車場がある（契約駐車場も含む）, 院内処方, 車椅子利用者への配慮（施設内のバリアフリー化の実施）, 車椅子対応トイレ, 施設内における全面禁煙の実施, ]",na,na,na,1.0|1|－,-|-|-,-|-|-,na,18.4,35.130107,138.872846,18,[歯科]
2023-09-16,栗田歯科医院,沼津市幸町４,静岡県沼津市幸町4,,2023年01月08日,http://www.qq.pref.shizuoka.jp/qq22/qqport/kenmintop/detail/fk1102.php?kinouid=fk9020&sisetuid=13824,個人,栗田 満,栗田　満,na,na,na,na,"[駐車場がある（契約駐車場も含む）, 院内処方, 施設内における全面禁煙の実施, ]",na,na,"[病院との連携, ]",2.0|2|－,-|-|-,-|-|-,na,15.0,35.095104,138.854949,18,[歯科]
2023-09-16,黒木歯科診療所,沼津市本郷町２２－１８,静岡県沼津市本郷町22-18,,2022年12月21日,http://www.qq.pref.shizuoka.jp/qq22/qqport/kenmintop/detail/fk1102.php?kinouid=fk9020&sisetuid=13645,個人,河野 英生,河野　英生,"[歯科領域の一次診療, , ]",na,na,na,"[駐車場がある（契約駐車場も含む）, 院内処方, 施設内における全面禁煙の実施, ]",na,na,na,3.0|2|1.0,-|-|-,-|-|-,1.0|1|－,8.8,35.092132,138.870337,18,[歯科、小児歯科]
2023-09-16,くわはら矯正歯科医院,沼津市大手町５－５－３ 森田ビル５階,静岡県沼津市大手町五丁目5-3, 森田ﾋﾞﾙ5階,2023年01月05日,http://www.qq.pref.shizuoka.jp/qq22/qqport/kenmintop/detail/fk1102.php?kinouid=fk9020&sisetuid=13668,個人,桑原 聡,桑原　聡,"[成人の歯科矯正治療, 顎変形症の歯科矯正治療, 唇顎口蓋裂の歯科矯正治療, , ]","[顎関節症治療, 唇顎口蓋裂治療, 顎変形症治療, , ]",na,na,"[駐車場がある（契約駐車場も含む）, 車椅子利用者への配慮（施設内のバリアフリー化の実施）, 施設内における全面禁煙の実施, ]",na,na,"[病院との連携, 診療所との連携, ]",2.0|2|－,-|-|-,-|-|-,1.0|1|－,20.0,35.099631,138.858615,18,[歯科、矯正歯科]
2023-09-16,敬愛歯科医院,沼津市下香貫下障子３１５１－５ 東広ビル２Ｆ,静岡県沼津市下香貫下障子3151-5, 東広ﾋﾞﾙ2f,2023年01月17日,http://www.qq.pref.shizuoka.jp/qq22/qqport/kenmintop/detail/fk1102.php?kinouid=fk9020&sisetuid=50187,個人,渡邊 光佳,渡邊　光佳,"[歯科領域の一次診療, 成人の歯科矯正治療, ]","[埋伏歯抜歯, 顎関節症治療, ]",na,na,"[駐車場がある（契約駐車場も含む）, 院内処方, 視覚障害者への配慮（音声による情報の伝達）, 施設内における全面禁煙の実施, 医療に関する相談窓口の設置, ]",na,na,"[病院との連携, ]",1.0|1|－,-|-|-,-|-|-,na,15.0,35.084002,138.87122,19,[小児歯科、歯科、矯正歯科]
2023-09-16,けやきデンタルクリニック,沼津市寿町７９８－１,静岡県沼津市寿町798-1,,2022年12月21日,http://www.qq.pref.shizuoka.jp/qq22/qqport/kenmintop/detail/fk1102.php?kinouid=fk9020&sisetuid=51788,個人,鈴木 孝典,鈴木　孝典,"[歯科領域の一次診療, 成人の歯科矯正治療, ]","[埋伏歯抜歯, 顎関節症治療, ]",na,na,"[駐車場がある（契約駐車場も含む）, 施設内における全面禁煙の実施, 医療に関する相談窓口の設置, ]",na,na,"[病院との連携, ]",1.5|1|0.5,-|-|-,-|-|-,2.4|2|0.4,31.3,35.115272,138.859177,19,[歯科、小児歯科、歯科口腔外科、矯正歯科]
2023-09-16,ごとう歯科医院,沼津市原１４１８－４５,静岡県沼津市原1418-45,,2022年12月23日,http://www.qq.pref.shizuoka.jp/qq22/qqport/kenmintop/detail/fk1102.php?kinouid=fk9020&sisetuid=13666,個人,後藤 美紀,後藤　美紀,"[歯科領域の一次診療, 著しく歯科診療が困難な者, 成人の歯科矯正治療, , ]",na,na,na,"[駐車場がある（契約駐車場も含む）, 視覚障害者への配慮（音声による情報の伝達）, 施設内における全面禁煙の実施, 医療に関する相談窓口の設置, ]",na,na,"[病院との連携, 居宅介護支援事業所との連携, 診療所との連携, 薬局との連携, ]",1.0|1|－,-|-|-,-|-|-,1.0|1|－,13.1,35.129127,138.805812,19,[歯科、矯正歯科、小児歯科]
2023-09-16,酒井歯科医院,沼津市今沢３４０,静岡県沼津市今沢340,,2023年01月03日,http://www.qq.pref.shizuoka.jp/qq22/qqport/kenmintop/detail/fk1102.php?kinouid=fk9020&sisetuid=13839,個人,酒井 正人,酒井　正人,"[歯科領域の一次診療, , ]","[埋伏歯抜歯, 口唇、舌若しくは口腔粘膜の炎症又は外傷の治療, 顎関節症治療, , ]",na,na,"[駐車場がある（契約駐車場も含む）, 院内処方, 施設内における全面禁煙の実施, ]",na,na,"[病院との連携, ]",1.0|1|－,-|-|-,-|-|-,1.0|1|－,4.0,35.119286,138.815084,19,[歯科]
2023-09-16,桜井歯科医院,沼津市沼北町１－５－１７,静岡県沼津市沼北町一丁目5-17,,2023年02月01日,http://www.qq.pref.shizuoka.jp/qq22/qqport/kenmintop/detail/fk1102.php?kinouid=fk9020&sisetuid=14487,個人,櫻井 克人,櫻井　克人,"[歯科領域の一次診療, , ]","[顎関節症治療, , ]",na,na,"[駐車場がある（契約駐車場も含む）, 院内処方, 聴覚障害者への配慮（施設内の情報の表示）, 施設内における全面禁煙の実施, ]",na,na,"[病院との連携, 診療所との連携, ]",1.0|1|－,-|-|-,-|-|-,1.0|1|－,33.6,35.113768,138.854004,19,[歯科、小児歯科、歯科口腔外科]
2023-09-16,笹本歯科,沼津市大手町５－６－７ ヌマヅスルガビル ５Ｆ,静岡県沼津市大手町五丁目6-7, ﾇﾏﾂﾞｽﾙｶﾞﾋﾞﾙ 5f,2023年01月18日,http://www.qq.pref.shizuoka.jp/qq22/qqport/kenmintop/detail/fk1102.php?kinouid=fk9020&sisetuid=13643,個人,笹本 純一,笹本　純一,"[歯科領域の一次診療, , ]","[顎関節症治療, , ]",na,na,"[駐車場がある（契約駐車場も含む）, 施設内における全面禁煙の実施, 医療に関する相談窓口の設置, ]",na,na,"[病院との連携, 薬局との連携, 診療所との連携, ]",1.0|1|－,-|-|-,-|-|-,na,10.0,35.099548,138.857893,19,[歯科]
2023-09-16,サトウ歯科,沼津市石川１６３,静岡県沼津市石川163,,2023年05月15日,http://www.qq.pref.shizuoka.jp/qq22/qqport/kenmintop/detail/fk1102.php?kinouid=fk9020&sisetuid=13766,個人,佐藤 由和,佐藤　由和,"[歯科領域の一次診療, 成人の歯科矯正治療, ]","[埋伏歯抜歯, , ]",na,na,"[駐車場がある（契約駐車場も含む）, 施設内における全面禁煙の実施, ]",na,na,"[病院との連携, 居宅介護支援事業所との連携, ]",1.0|1|－,-|-|-,-|-|-,－|－|－,9.6,35.147041,138.777869,19,[歯科、矯正歯科]
2023-09-16,さとう歯科医院,沼津市大岡８１０－２６ つるかめマンション １Ｆ,静岡県沼津市大岡810-26, ﾂﾙｶﾒﾏﾝｼｮﾝ 1f,2023年02月16日,http://www.qq.pref.shizuoka.jp/qq22/qqport/kenmintop/detail/fk1102.php?kinouid=fk9020&sisetuid=13831,個人,佐藤 有,佐藤　有,"[歯科領域の一次診療, , ]","[口唇、舌若しくは口腔粘膜の炎症又は外傷の治療, , ]",na,na,"[駐車場がある（契約駐車場も含む）, 院内処方, 施設内における全面禁煙の実施, ]",na,na,na,1.0|1|－,-|-|-,-|-|-,1.0|1|－,20.0,35.111047,138.879307,19,[歯科、小児歯科]
2023-09-16,佐野歯科クリニック,沼津市大岡１４２０－３,静岡県沼津市大岡1420-3,,2023年01月16日,http://www.qq.pref.shizuoka.jp/qq22/qqport/kenmintop/detail/fk1102.php?kinouid=fk9020&sisetuid=51270,医療法人,社団康友会,佐野　悦夫,"[歯科領域の一次診療, 著しく歯科診療が困難な者, ]","[顎関節症治療, , ]",na,na,"[駐車場がある（契約駐車場も含む）, 院内処方, 視覚障害者への配慮（音声による情報の伝達）, 聴覚障害者への配慮（施設内の情報の表示）, 車椅子利用者への配慮（施設内のバリアフリー化の実施）, 車椅子対応トイレ, 施設内における全面禁煙の実施, 医療に関する相談窓口の設置, ]",na,na,"[病院との連携, 居宅介護支援事業所との連携, 診療所との連携, 薬局との連携, 訪問看護ステーションとの連携, ]",2.0|2|－,-|-|-,-|-|-,13.0|13|－,62.0,35.103712,138.878355,19,[歯科、小児歯科]
2023-09-16,庄司歯科医院,沼津市本町９,静岡県沼津市本町9,,2023年01月07日,http://www.qq.pref.shizuoka.jp/qq22/qqport/kenmintop/detail/fk1102.php?kinouid=fk9020&sisetuid=13662,個人,庄司 喜則,庄司　喜則,"[歯科領域の一次診療, 著しく歯科診療が困難な者, 成人の歯科矯正治療, , ]","[埋伏歯抜歯, 顎関節症治療, ]",na,na,"[駐車場がある（契約駐車場も含む）, 院内処方, 車椅子利用者への配慮（施設内のバリアフリー化の実施）, 施設内における全面禁煙の実施, ]",na,na,"[診療所との連携, ]",1.5|1|0.5,-|-|-,-|-|-,1.0|1|－,12.0,35.095826,138.856921,19,[歯科、矯正歯科、小児歯科]
2023-09-16,小児歯科よしいけ,沼津市市場町７－８,静岡県沼津市市場町7-8,,2023年01月02日,http://www.qq.pref.shizuoka.jp/qq22/qqport/kenmintop/detail/fk1102.php?kinouid=fk9020&sisetuid=13833,個人,吉池 眞奈美,吉池　眞奈美,"[歯科領域の一次診療, , ]",na,na,na,"[駐車場がある（契約駐車場も含む）, 院内処方, 施設内における全面禁煙の実施, ]",na,na,"[病院との連携, 診療所との連携, ]",1.0|1|－,-|-|-,-|-|-,1.0|1|－,12.0,35.094755,138.862719,20,[小児歯科、矯正歯科]
2023-09-16,シラカベ歯科医院,沼津市本字下一丁田８８９－７,静岡県沼津市本字下一丁田889-7,,2023年05月10日,http://www.qq.pref.shizuoka.jp/qq22/qqport/kenmintop/detail/fk1102.php?kinouid=fk9020&sisetuid=14460,個人,白壁 浩之,白壁　浩之,"[歯科領域の一次診療, 著しく歯科診療が困難な者, 成人の歯科矯正治療, , ]","[埋伏歯抜歯, 口唇、舌若しくは口腔粘膜の炎症又は外傷の治療, 顎関節症治療, , ]",na,na,"[駐車場がある（契約駐車場も含む）, 院内処方, 車椅子利用者への配慮（施設内のバリアフリー化の実施）, 施設内における全面禁煙の実施, 医療に関する相談窓口の設置, ]",na,na,"[病院との連携, 居宅介護支援事業所との連携, 診療所との連携, ]",3.0|1|2.0,-|-|-,-|-|-,4.0|4|－,31.6,35.093548,138.852394,20,[歯科、小児歯科、矯正歯科]
2023-09-16,鈴木歯科医院,沼津市吉田町２８－２６,静岡県沼津市吉田町28-26,,2023年01月14日,http://www.qq.pref.shizuoka.jp/qq22/qqport/kenmintop/detail/fk1102.php?kinouid=fk9020&sisetuid=13650,個人,鈴木 啓一郎,鈴木　啓一郎,"[歯科領域の一次診療, , ]",na,na,na,"[駐車場がある（契約駐車場も含む）, 施設内における全面禁煙の実施, ]",na,na,"[病院との連携, 診療所との連携, ]",2.0|2|－,-|-|-,-|-|-,1.0|1|－,17.0,35.093604,138.861698,20,[歯科]
2023-09-16,鈴木歯科医院,沼津市北高島町４－１１ 杉ビル２Ｆ,静岡県沼津市北高島町4-11, 杉ﾋﾞﾙ2f,2023年01月15日,http://www.qq.pref.shizuoka.jp/qq22/qqport/kenmintop/detail/fk1102.php?kinouid=fk9020&sisetuid=13663,個人,鈴木 篤実,鈴木　篤実,"[歯科領域の一次診療, , ]","[埋伏歯抜歯, 顎関節症治療, ]",na,na,"[駐車場がある（契約駐車場も含む）, 院内処方, 施設内における全面禁煙の実施, ]",na,na,"[病院との連携, 薬局との連携, 診療所との連携, ]",1.0|1|－,-|-|-,-|-|-,2.0|2|－,15.0,35.112157,138.859503,20,[歯科]
2023-09-16,鈴木歯科クリニック,沼津市志下１７８－２,静岡県沼津市志下178-2,,2023年05月12日,http://www.qq.pref.shizuoka.jp/qq22/qqport/kenmintop/detail/fk1102.php?kinouid=fk9020&sisetuid=13771,医療法人,社団 共栄会,鈴木　隆之,"[歯科領域の一次診療, , ]","[埋伏歯抜歯, 顎関節症治療, ]",na,na,"[駐車場がある（契約駐車場も含む）, 院内処方, 施設内における全面禁煙の実施, ]",na,na,na,1.0|1|－,-|-|-,-|-|-,2.0|2|－,22.5,35.06719,138.878087,20,[歯科、歯科]
2023-09-16,すんとう歯科クリニック,沼津市大平１３８－１,静岡県沼津市大平138-1,,2023年05月11日,http://www.qq.pref.shizuoka.jp/qq22/qqport/kenmintop/detail/fk1102.php?kinouid=fk9020&sisetuid=14495,個人,駿藤 昭義,駿藤昭義,"[歯科領域の一次診療, , ]","[顎関節症治療, 口唇、舌若しくは口腔粘膜の炎症又は外傷の治療, ]",na,na,"[駐車場がある（契約駐車場も含む）, 院内処方, 聴覚障害者への配慮（施設内の情報の表示）, 車椅子利用者への配慮（施設内のバリアフリー化の実施）, 車椅子対応トイレ, 施設内における全面禁煙の実施, ]",na,na,"[病院との連携, 診療所との連携, ]",1.0|1|－,-|-|-,-|-|-,3.0|3|－,35.0,35.078329,138.906334,20,[歯科、小児歯科]
2023-09-16,一般財団法人芙蓉協会　聖隷沼津病院,沼津市松下七反田９０２－６,静岡県沼津市松下町七反田902-6,,2023年01月28日,http://www.qq.pref.shizuoka.jp/qq22/qqport/kenmintop/detail/fk1102.php?kinouid=fk9020&sisetuid=10101,一般財団法人,芙蓉協会,伊藤　孝,"[歯科領域の一次診療, 摂食機能障害の治療, 著しく歯科診療が困難な者, , ]","[埋伏歯抜歯, 顎骨骨折治療, 顎関節症治療, 口唇、舌若しくは口腔粘膜の炎症又は外傷の治療, ]",na,na,"[駐車場がある（契約駐車場も含む）, 院内処方, 車椅子利用者への配慮（施設内のバリアフリー化の実施）, 車椅子対応トイレ, 施設内における全面禁煙の実施, 医療に関する相談窓口の設置, ]",na,na,na,na,-|-|-,-|-|-,na,535.2,35.09452,138.850588,20,[歯科口腔外科]
2023-09-16,せきざわ歯科医院,沼津市西間門２２７－４,静岡県沼津市西間門227-4,,2022年12月27日,http://www.qq.pref.shizuoka.jp/qq22/qqport/kenmintop/detail/fk1102.php?kinouid=fk9020&sisetuid=13776,個人,堰澤 敦,堰澤　敦,"[歯科領域の一次診療, , ]",na,na,na,"[駐車場がある（契約駐車場も含む）, 院内処方, 施設内における全面禁煙の実施, ]",na,na,"[病院との連携, ]",1.0|1|－,-|-|-,-|-|-,na,10.0,35.103964,138.842005,20,[歯科、小児歯科]
2023-09-16,せりざわ歯科医院,沼津市我入道江川１６－２６,静岡県沼津市我入道江川16-26,,2023年03月27日,http://www.qq.pref.shizuoka.jp/qq22/qqport/kenmintop/detail/fk1102.php?kinouid=fk9020&sisetuid=13754,個人,芹澤 孝昌,芹澤　孝昌,"[歯科領域の一次診療, , ]",na,na,na,"[駐車場がある（契約駐車場も含む）, 院内処方, 施設内における全面禁煙の実施, ]",na,na,na,1.0|1|－,-|-|-,-|-|-,na,13.2,35.081689,138.863921,20,[歯科]
2023-09-16,芹澤歯科医院,沼津市大岡１９６２,静岡県沼津市大岡1962,,2023年03月09日,http://www.qq.pref.shizuoka.jp/qq22/qqport/kenmintop/detail/fk1102.php?kinouid=fk9020&sisetuid=13657,個人,芹澤 真以子,芹澤　真以子,"[歯科領域の一次診療, 成人の歯科矯正治療, ]",na,na,na,"[駐車場がある（契約駐車場も含む）, 院内処方, 車椅子利用者への配慮（施設内のバリアフリー化の実施）, 車椅子対応トイレ, 施設内における全面禁煙の実施, ]",na,na,"[病院との連携, 診療所との連携, ]",2.0|2|－,-|-|-,-|-|-,4.0|4|－,45.5,35.11488,138.868613,20,[歯科、歯科口腔外科、小児歯科、矯正歯科]
2023-09-16,ソデ歯科医院,沼津市高島町２７－１１,静岡県沼津市高島町27-11,,2022年12月24日,http://www.qq.pref.shizuoka.jp/qq22/qqport/kenmintop/detail/fk1102.php?kinouid=fk9020&sisetuid=13634,個人,外 信之,外　信之,"[歯科領域の一次診療, , ]","[埋伏歯抜歯, , ]",na,na,"[駐車場がある（契約駐車場も含む）, 院内処方, 施設内における全面禁煙の実施, ]",na,na,"[病院との連携, ]",1.0|1|－,-|-|-,-|-|-,－|－|－,8.0,35.105797,138.85792,21,[歯科]
2023-09-16,中央歯科医院,沼津市末広町２８,静岡県沼津市末広町28,,2023年01月07日,http://www.qq.pref.shizuoka.jp/qq22/qqport/kenmintop/detail/fk1102.php?kinouid=fk9020&sisetuid=13648,個人,佐藤 伸,佐藤　伸,"[歯科領域の一次診療, , ]",na,na,na,"[駐車場がある（契約駐車場も含む）, 施設内における全面禁煙の実施, ]",na,na,"[病院との連携, 薬局との連携, ]",1.0|1|－,-|-|-,-|-|-,2.0|1|1.0,15.0,35.097714,138.853838,21,[歯科]
2023-09-16,医）真歯研　塚本歯科クリニック,沼津市下香貫前原１４９９－１,静岡県沼津市下香貫前原1499-1,,2023年04月11日,http://www.qq.pref.shizuoka.jp/qq22/qqport/kenmintop/detail/fk1102.php?kinouid=fk9020&sisetuid=14479,医療法人,社団 真歯研,塚本　真平,"[歯科領域の一次診療, , ]",na,na,na,"[駐車場がある（契約駐車場も含む）, 院内処方, 車椅子利用者への配慮（施設内のバリアフリー化の実施）, 施設内における全面禁煙の実施, ]",na,na,"[病院との連携, ]",2.0|1|1.0,-|-|-,-|-|-,6.0|6|－,50.0,35.077217,138.871726,21,[歯科]
2023-09-16,土屋歯科医院,沼津市大岡１１４２－１,静岡県沼津市大岡1142-1,,2023年01月31日,http://www.qq.pref.shizuoka.jp/qq22/qqport/kenmintop/detail/fk1102.php?kinouid=fk9020&sisetuid=13667,個人,土屋 博昭,土屋　博昭,"[歯科領域の一次診療, 成人の歯科矯正治療, ]","[口唇、舌若しくは口腔粘膜の炎症又は外傷の治療, , ]",na,na,"[駐車場がある（契約駐車場も含む）, 院内処方, 視覚障害者への配慮（音声による情報の伝達）, 聴覚障害者への配慮（施設内の情報の表示）, 施設内における全面禁煙の実施, ]",na,na,"[病院との連携, ]",2.0|2|－,-|-|-,-|-|-,na,na,35.103964,138.881752,21,[歯科、矯正歯科]
2023-09-16,津野歯科医院,沼津市大岡２２７５－６,静岡県沼津市大岡2275-6,,2023年05月29日,http://www.qq.pref.shizuoka.jp/qq22/qqport/kenmintop/detail/fk1102.php?kinouid=fk9020&sisetuid=13635,個人,津野 和久,津野　和久,"[歯科領域の一次診療, 著しく歯科診療が困難な者, 成人の歯科矯正治療, , ]","[埋伏歯抜歯, 口唇、舌若しくは口腔粘膜の炎症又は外傷の治療, 顎関節症治療, , ]",na,na,"[駐車場がある（契約駐車場も含む）, 視覚障害者への配慮（音声による情報の伝達）, 聴覚障害者への配慮（施設内の情報の表示）, 車椅子利用者への配慮（施設内のバリアフリー化の実施）, 車椅子対応トイレ, 施設内における全面禁煙の実施, ]",na,na,"[病院との連携, 居宅介護支援事業所との連携, 診療所との連携, 薬局との連携, ]",3.0|2|1.0,-|-|-,-|-|-,1.0|1|－,30.0,35.114991,138.878751,21,[歯科]
2023-09-16,デンタルオフィスみなと,沼津市本田町５－１７,静岡県沼津市本田町5-17,,2022年12月21日,http://www.qq.pref.shizuoka.jp/qq22/qqport/kenmintop/detail/fk1102.php?kinouid=fk9020&sisetuid=14523,医療法人,社団 みなと会,露木良治,"[歯科領域の一次診療, 摂食機能障害の治療, 著しく歯科診療が困難な者, , ]","[埋伏歯抜歯, 口唇、舌若しくは口腔粘膜の炎症又は外傷の治療, 顎関節症治療, , ]",na,na,"[駐車場がある（契約駐車場も含む）, 院内処方, 車椅子利用者への配慮（施設内のバリアフリー化の実施）, 車椅子対応トイレ, 施設内における全面禁煙の実施, ]",na,na,"[病院との連携, 居宅介護支援事業所との連携, 診療所との連携, ]",2.0|2|－,-|-|-,-|-|-,3.0|1|2.0,50.0,35.109297,138.854393,21,[歯科、小児歯科、歯科口腔外科]
2023-09-16,中江歯科クリニック,沼津市岡宮９７３－５,静岡県沼津市岡宮973-5,,2023年01月11日,http://www.qq.pref.shizuoka.jp/qq22/qqport/kenmintop/detail/fk1102.php?kinouid=fk9020&sisetuid=51077,医療法人,社団 悠羽会,中江　英彦,"[歯科領域の一次診療, 成人の歯科矯正治療, ]","[埋伏歯抜歯, 顎関節症治療, ]",na,na,"[駐車場がある（契約駐車場も含む）, 院内処方, 車椅子利用者への配慮（施設内のバリアフリー化の実施）, 車椅子対応トイレ, 施設内における全面禁煙の実施, ]",na,na,na,1.1|1|0.1,-|-|-,-|-|-,2.0|2|－,11.6,35.132538,138.868683,21,[歯科、小児歯科、矯正歯科、歯科口腔外科]
2023-09-16,中島歯科医院,沼津市三園町９－１４,静岡県沼津市三園町9-14,,2023年05月12日,http://www.qq.pref.shizuoka.jp/qq22/qqport/kenmintop/detail/fk1102.php?kinouid=fk9020&sisetuid=13651,個人,中島 徹,中島　徹,"[歯科領域の一次診療, 成人の歯科矯正治療, ]","[埋伏歯抜歯, , ]",na,na,"[駐車場がある（契約駐車場も含む）, 施設内における全面禁煙の実施, ]",na,na,"[病院との連携, 薬局との連携, 診療所との連携, ]",1.0|1|－,-|-|-,-|-|-,3.0|3|－,25.0,35.087855,138.865754,21,[歯科、矯正歯科]
2023-09-16,中野歯科医院,沼津市下本町５０,静岡県沼津市下本町50,,2023年04月11日,http://www.qq.pref.shizuoka.jp/qq22/qqport/kenmintop/detail/fk1102.php?kinouid=fk9020&sisetuid=14535,個人,中野 文雄,中野　文雄,"[歯科領域の一次診療, , ]",na,na,na,"[駐車場がある（契約駐車場も含む）, 院内処方, 施設内における全面禁煙の実施, ]",na,na,na,1.0|1|－,-|-|-,-|-|-,－|－|－,9.0,35.094743,138.856226,21,[歯科]
2023-09-16,中ノ森歯科医院,沼津市緑ケ丘２－１０,静岡県沼津市緑ｹ丘2-10,,2023年01月17日,http://www.qq.pref.shizuoka.jp/qq22/qqport/kenmintop/detail/fk1102.php?kinouid=fk9020&sisetuid=13835,個人,中ノ森 暁,中ノ森　暁,"[歯科領域の一次診療, , ]",na,na,na,"[駐車場がある（契約駐車場も含む）, 施設内における全面禁煙の実施, ]",na,na,"[病院との連携, 薬局との連携, 診療所との連携, ]",2.0|2|－,-|-|-,-|-|-,－|－|－,9.3,35.120046,138.872363,21,[歯科]
2023-09-16,長尾歯科医院,沼津市上香貫宮原町１５０５,静岡県沼津市上香貫宮原町1505,,2022年12月22日,http://www.qq.pref.shizuoka.jp/qq22/qqport/kenmintop/detail/fk1102.php?kinouid=fk9020&sisetuid=13636,個人,長尾 伸也,長尾　伸也,"[歯科領域の一次診療, , ]","[埋伏歯抜歯, , ]",na,na,"[駐車場がある（契約駐車場も含む）, 院内処方, 施設内における全面禁煙の実施, ]",na,na,na,1.0|1|－,-|-|-,-|-|-,－|－|－,12.2,35.087383,138.871059,22,[歯科]
2023-09-16,ながさわ原町歯科医院,沼津市原１７６４番地の１,静岡県沼津市原1764-1,,2023年01月31日,http://www.qq.pref.shizuoka.jp/qq22/qqport/kenmintop/detail/fk1102.php?kinouid=fk9020&sisetuid=14499,個人,長澤 信岳,長澤　信岳,"[歯科領域の一次診療, , ]",na,na,na,"[駐車場がある（契約駐車場も含む）, 施設内における全面禁煙の実施, ]",na,na,"[病院との連携, 薬局との連携, 診療所との連携, ]",1.0|1|－,-|-|-,-|-|-,1.8|1|0.8,17.3,35.132099,138.804451,22,[歯科、矯正歯科、小児歯科]
2023-09-16,にいづま歯科,沼津市大手町２－７－１７ 大手町ハイツ２Ｆ,静岡県沼津市大手町二丁目7-17, 大手町ﾊｲﾂ2f,2022年12月28日,http://www.qq.pref.shizuoka.jp/qq22/qqport/kenmintop/detail/fk1102.php?kinouid=fk9020&sisetuid=14524,個人,萩原 久子,萩原　久子,"[歯科領域の一次診療, , ]","[埋伏歯抜歯, 顎関節症治療, ]",na,na,"[駐車場がある（契約駐車場も含む）, 視覚障害者への配慮（音声による情報の伝達）, 聴覚障害者への配慮（施設内の情報の表示）, 施設内における全面禁煙の実施, ]",na,na,"[病院との連携, 薬局との連携, 診療所との連携, ]",1.0|1|－,-|-|-,-|-|-,2.0|－|2.0,12.0,35.100548,138.862004,22,[歯科、小児歯科、歯科口腔外科]
2023-09-16,西家歯科医院,沼津市原１９８,静岡県沼津市原198,,2022年12月26日,http://www.qq.pref.shizuoka.jp/qq22/qqport/kenmintop/detail/fk1102.php?kinouid=fk9020&sisetuid=13639,個人,西家 孝,西家　孝,"[歯科領域の一次診療, 著しく歯科診療が困難な者, ]","[埋伏歯抜歯, 口唇、舌若しくは口腔粘膜の炎症又は外傷の治療, 顎関節症治療, , ]",na,na,"[駐車場がある（契約駐車場も含む）, 院内処方, 施設内における全面禁煙の実施, ]",na,na,"[病院との連携, 薬局との連携, 診療所との連携, ]",1.0|1|－,-|-|-,-|-|-,1.0|1|－,19.0,35.125238,138.797758,22,[歯科]
2023-09-16,沼津歯科,沼津市大手町５－９－１ 富澤屋ビル１・２階,静岡県沼津市大手町五丁目9-1, 富澤屋ﾋﾞﾙ1･2階,2023年01月07日,http://www.qq.pref.shizuoka.jp/qq22/qqport/kenmintop/detail/fk1102.php?kinouid=fk9020&sisetuid=51796,医療法人,社団 木内会,木内　衛,"[歯科領域の一次診療, 著しく歯科診療が困難な者, 成人の歯科矯正治療, , ]","[埋伏歯抜歯, 口唇、舌若しくは口腔粘膜の炎症又は外傷の治療, 顎関節症治療, , ]",na,na,"[駐車場がある（契約駐車場も含む）, 車椅子利用者への配慮（施設内のバリアフリー化の実施）, 車椅子対応トイレ, 施設内における全面禁煙の実施, ]",na,na,"[病院との連携, ]",5.0|2|3.0,-|-|-,-|-|-,11.0|9|2.0,68.4,35.101512,138.858214,22,[歯科、小児歯科、矯正歯科、歯科口腔外科]
2023-09-16,沼津市立病院,沼津市東椎路字春ノ木５５０,静岡県沼津市東椎路字春ﾉ木550,,2023年04月13日,http://www.qq.pref.shizuoka.jp/qq22/qqport/kenmintop/detail/fk1102.php?kinouid=fk9020&sisetuid=10096,個人,沼津市長 賴重 秀一,卜部　憲和,"[歯科領域の一次診療, 著しく歯科診療が困難な者, ]","[埋伏歯抜歯, 顎骨骨折治療, 顎関節症治療, 口唇、舌若しくは口腔粘膜の炎症又は外傷の治療, 顎変形症治療, , ]",na,na,"[駐車場がある（契約駐車場も含む）, 視覚障害者への配慮（施設内点字ブロックの設置）, 聴覚障害者への配慮（施設内の情報の表示）, 視覚障害者への配慮（点字による表示）, 車椅子利用者への配慮（施設内のバリアフリー化の実施）, 車椅子対応トイレ, 施設内における全面禁煙の実施, 医療に関する相談窓口の設置, ]",na,na,na,na,-|-|-,-|-|-,na,620.6,35.119656,138.835144,22,[歯科口腔外科]
2023-09-16,根方街道　まや歯科医院,沼津市東沢田２３３ー８,静岡県沼津市東沢田233-8,,2022年12月25日,http://www.qq.pref.shizuoka.jp/qq22/qqport/kenmintop/detail/fk1102.php?kinouid=fk9020&sisetuid=52208,個人,田附真也子,田附真也子,"[歯科領域の一次診療, , ]",na,na,na,"[院内処方, 車椅子利用者への配慮（施設内のバリアフリー化の実施）, 施設内における全面禁煙の実施, ]",na,na,"[病院との連携, 診療所との連携, ]",1.0|1|－,-|-|-,-|-|-,1.0|1|－,18.5,35.122015,138.856042,22,[歯科、小児歯科、歯科口腔外科]
2023-09-16,野口歯科医院,沼津市三枚橋町６－５,静岡県沼津市三枚橋町6-5,,2023年05月12日,http://www.qq.pref.shizuoka.jp/qq22/qqport/kenmintop/detail/fk1102.php?kinouid=fk9020&sisetuid=13665,個人,野口 和也,野口　和也,"[歯科領域の一次診療, 摂食機能障害の治療, 著しく歯科診療が困難な者, , ]","[埋伏歯抜歯, 顎変形症治療, 顎関節症治療, , ]",na,na,"[駐車場がある（契約駐車場も含む）, 視覚障害者への配慮（音声による情報の伝達）, 聴覚障害者への配慮（施設内の情報の表示）, 車椅子利用者への配慮（施設内のバリアフリー化の実施）, 施設内における全面禁煙の実施, ]",na,na,"[病院との連携, 居宅介護支援事業所との連携, 診療所との連携, 薬局との連携, 訪問看護ステーションとの連携, ]",2.0|2|－,-|-|-,-|-|-,1.5|1|0.5,35.0,35.100848,138.863248,22,[歯科、小児歯科]
2023-09-16,はせがわ歯科,沼津市三枚橋日ノ出町３８３－８,静岡県沼津市三枚橋日ﾉ出町383-8,,2023年02月01日,http://www.qq.pref.shizuoka.jp/qq22/qqport/kenmintop/detail/fk1102.php?kinouid=fk9020&sisetuid=13659,個人,長谷川 靖典,長谷川　靖典,"[歯科領域の一次診療, 著しく歯科診療が困難な者, ]","[顎関節症治療, , ]",na,na,"[駐車場がある（契約駐車場も含む）, 車椅子利用者への配慮（施設内のバリアフリー化の実施）, 車椅子対応トイレ, 施設内における全面禁煙の実施, ]",na,na,"[病院との連携, 薬局との連携, ]",3.0|3|－,-|-|-,-|-|-,3.0|3|－,20.0,35.110491,138.867753,22,[歯科、小児歯科]
2023-09-16,原田歯科医院,沼津市大塚３２７－３,静岡県沼津市大塚327-3,,2023年04月11日,http://www.qq.pref.shizuoka.jp/qq22/qqport/kenmintop/detail/fk1102.php?kinouid=fk9020&sisetuid=13752,個人,原田 雅弘,原田　雅弘,"[歯科領域の一次診療, 摂食機能障害の治療, 著しく歯科診療が困難な者, , ]","[埋伏歯抜歯, 顎関節症治療, ]",na,na,"[駐車場がある（契約駐車場も含む）, 院内処方, 施設内における全面禁煙の実施, ]",na,na,"[病院との連携, 居宅介護支援事業所との連携, 診療所との連携, 薬局との連携, 訪問看護ステーションとの連携, ]",1.0|1|－,-|-|-,-|-|-,na,15.2,35.123322,138.804368,22,[歯科]
2023-09-16,はんがい歯科医院,沼津市米山町２－７－１Ｆ,静岡県沼津市米山町2-7,1f,2022年12月26日,http://www.qq.pref.shizuoka.jp/qq22/qqport/kenmintop/detail/fk1102.php?kinouid=fk9020&sisetuid=14520,個人,半谷 一臣,半谷　一臣,"[歯科領域の一次診療, , ]","[埋伏歯抜歯, 口唇、舌若しくは口腔粘膜の炎症又は外傷の治療, 顎関節症治療, , ]",na,na,"[駐車場がある（契約駐車場も含む）, 院内処方, 車椅子利用者への配慮（施設内のバリアフリー化の実施）, 施設内における全面禁煙の実施, ]",na,na,"[病院との連携, 診療所との連携, ]",2.0|1|1.0,-|-|-,-|-|-,3.0|1|2.0,25.0,35.105353,138.862864,23,[歯科]
2023-09-16,パル博愛歯科,沼津市末広町４,静岡県沼津市末広町4,,2023年03月25日,http://www.qq.pref.shizuoka.jp/qq22/qqport/kenmintop/detail/fk1102.php?kinouid=fk9020&sisetuid=13756,個人,竹内 純子,竹内　純子,"[歯科領域の一次診療, 著しく歯科診療が困難な者, ]","[埋伏歯抜歯, 口唇、舌若しくは口腔粘膜の炎症又は外傷の治療, 顎関節症治療, , ]",na,na,"[駐車場がある（契約駐車場も含む）, 院内処方, 視覚障害者への配慮（音声による情報の伝達）, 施設内における全面禁煙の実施, ]",na,na,"[病院との連携, 居宅介護支援事業所との連携, 診療所との連携, 薬局との連携, ]",2.0|2|－,-|-|-,-|-|-,4.0|3|1.0,40.0,35.097826,138.854282,23,[歯科、小児歯科、歯科]
2023-09-16,パートナー歯科,沼津市大岡１７１９－１ 大岡シティプラザ１０１,静岡県沼津市大岡1719-1, 大岡ｼﾃｨﾌﾟﾗｻﾞ101,2023年01月02日,http://www.qq.pref.shizuoka.jp/qq22/qqport/kenmintop/detail/fk1102.php?kinouid=fk9020&sisetuid=14514,個人,黒澤 まゆ,黒澤　まゆ,"[歯科領域の一次診療, , ]",na,na,na,"[駐車場がある（契約駐車場も含む）, 院内処方, 施設内における全面禁煙の実施, ]",na,na,"[病院との連携, 薬局との連携, 診療所との連携, ]",1.0|1|－,-|-|-,-|-|-,－|－|－,20.0,35.104131,138.87303,23,[歯科、小児歯科]
2023-09-16,ひまわり歯科,沼津市中瀬町１０－１１,静岡県沼津市中瀬町10-11,,2023年01月12日,http://www.qq.pref.shizuoka.jp/qq22/qqport/kenmintop/detail/fk1102.php?kinouid=fk9020&sisetuid=14496,個人,横山 脩英,横山　脩英,"[歯科領域の一次診療, 著しく歯科診療が困難な者, 成人の歯科矯正治療, , ]","[埋伏歯抜歯, 口唇、舌若しくは口腔粘膜の炎症又は外傷の治療, 顎関節症治療, , ]",na,na,"[駐車場がある（契約駐車場も含む）, 院内処方, 施設内における全面禁煙の実施, ]",na,na,"[病院との連携, 診療所との連携, ]",1.0|1|－,-|-|-,-|-|-,na,15.0,35.099131,138.879947,23,[歯科]
2023-09-16,平原歯科クリニック,沼津市大岡５１７－４ 鈴福ビル１Ｆ,静岡県沼津市大岡517-4, 鈴福ﾋﾞﾙ1f,2023年03月27日,http://www.qq.pref.shizuoka.jp/qq22/qqport/kenmintop/detail/fk1102.php?kinouid=fk9020&sisetuid=13816,個人,平原 徹,平原　徹,"[歯科領域の一次診療, , ]",na,na,na,"[駐車場がある（契約駐車場も含む）, 院内処方, 車椅子利用者への配慮（施設内のバリアフリー化の実施）, 施設内における全面禁煙の実施, ]",na,na,na,1.0|1|－,-|-|-,-|-|-,1.0|1|－,14.2,35.106825,138.885085,23,[歯科]
2023-09-16,ひろせ歯科クリニック,沼津市根古屋２０３－２,静岡県沼津市根古屋203-2,,2023年05月02日,http://www.qq.pref.shizuoka.jp/qq22/qqport/kenmintop/detail/fk1102.php?kinouid=fk9020&sisetuid=14506,個人,廣瀬 千鶴,廣瀬　千鶴,"[歯科領域の一次診療, , ]",na,na,na,"[駐車場がある（契約駐車場も含む）, 院内処方, 車椅子利用者への配慮（施設内のバリアフリー化の実施）, 施設内における全面禁煙の実施, ]",na,na,na,1.0|1|－,-|-|-,-|-|-,1.0|－|1.0,28.0,35.138459,138.80184,23,[歯科]
2023-09-16,古屋歯科医院,沼津市下香貫藤井原１６１８－６,静岡県沼津市下香貫藤井原1618-6,,2022年12月22日,http://www.qq.pref.shizuoka.jp/qq22/qqport/kenmintop/detail/fk1102.php?kinouid=fk9020&sisetuid=13796,個人,古屋 佳浩,古屋　佳浩,"[歯科領域の一次診療, , ]",na,na,na,"[駐車場がある（契約駐車場も含む）, 院内処方, 施設内における全面禁煙の実施, ]",na,na,na,1.0|1|－,-|-|-,-|-|-,2.5|1|1.5,30.0,35.078745,138.873254,23,[歯科]
2023-09-16,へだ歯科クリニック,沼津市戸田２７６９ー１,静岡県沼津市戸田2769-1,,2023年04月11日,http://www.qq.pref.shizuoka.jp/qq22/qqport/kenmintop/detail/fk1102.php?kinouid=fk9020&sisetuid=52085,個人,土本 隆太郎,土本　隆太郎,"[歯科領域の一次診療, , ]",na,na,na,"[駐車場がある（契約駐車場も含む）, 院内処方, ]",na,na,na,na,-|-|-,-|-|-,na,na,34.980356,138.772846,23,[歯科]
2023-09-16,ベル歯科医院,沼津市中沢田２９０－４,静岡県沼津市中沢田290-4,,2023年01月18日,http://www.qq.pref.shizuoka.jp/qq22/qqport/kenmintop/detail/fk1102.php?kinouid=fk9020&sisetuid=13760,個人,鈴木 俊将,鈴木　俊将,"[歯科領域の一次診療, 著しく歯科診療が困難な者, 成人の歯科矯正治療, , ]","[埋伏歯抜歯, 顎関節症治療, ]",na,na,"[駐車場がある（契約駐車場も含む）, 院内処方, 車椅子利用者への配慮（施設内のバリアフリー化の実施）, 車椅子対応トイレ, 施設内における全面禁煙の実施, ]",na,na,"[病院との連携, ]",1.0|1|－,-|-|-,-|-|-,－|－|－,24.5,35.121656,138.850226,23,[歯科]
2023-09-16,ほりうち矯正歯科クリニック,沼津市西間門４４７－２,静岡県沼津市西間門447-2,,2023年02月01日,http://www.qq.pref.shizuoka.jp/qq22/qqport/kenmintop/detail/fk1102.php?kinouid=fk9020&sisetuid=13828,個人,堀内 昭男,堀内　昭男,"[成人の歯科矯正治療, 顎変形症の歯科矯正治療, 唇顎口蓋裂の歯科矯正治療, , ]",na,na,na,"[駐車場がある（契約駐車場も含む）, 施設内における全面禁煙の実施, ]",na,na,na,1.0|1|－,-|-|-,-|-|-,－|－|－,4.1,35.101936,138.842061,23,[矯正歯科]
2023-09-16,堀江歯科医院,沼津市三園町２－１１,静岡県沼津市三園町2-11,,2023年01月08日,http://www.qq.pref.shizuoka.jp/qq22/qqport/kenmintop/detail/fk1102.php?kinouid=fk9020&sisetuid=13717,個人,堀江薫雄,堀江　薫雄,"[歯科領域の一次診療, 成人の歯科矯正治療, ]","[埋伏歯抜歯, 口唇、舌若しくは口腔粘膜の炎症又は外傷の治療, 顎関節症治療, , ]",na,na,"[駐車場がある（契約駐車場も含む）, 院内処方, 車椅子利用者への配慮（施設内のバリアフリー化の実施）, 車椅子対応トイレ, 施設内における全面禁煙の実施, 医療に関する相談窓口の設置, ]",na,na,"[病院との連携, 居宅介護支援事業所との連携, 診療所との連携, ]",2.0|2|－,-|-|-,-|-|-,1.3|1|0.3,24.0,35.091354,138.865615,24,[歯科]
2023-09-16,増田歯科医院,沼津市新町４０４,静岡県沼津市新町404,,2023年03月27日,http://www.qq.pref.shizuoka.jp/qq22/qqport/kenmintop/detail/fk1102.php?kinouid=fk9020&sisetuid=13637,個人,増田 清治,増田　清治,"[歯科領域の一次診療, , ]","[埋伏歯抜歯, , ]",na,na,"[駐車場がある（契約駐車場も含む）, 院内処方, 車椅子利用者への配慮（施設内のバリアフリー化の実施）, ]",na,na,"[病院との連携, ]",1.0|1|－,-|-|-,-|-|-,na,4.8,35.09377,138.856671,24,[歯科]
2023-09-16,増田デンタルクリニック,沼津市大岡２４３７－１ 大岡駅前ビル,静岡県沼津市大岡2437-1, 大岡駅前ﾋﾞﾙ,2023年01月17日,http://www.qq.pref.shizuoka.jp/qq22/qqport/kenmintop/detail/fk1102.php?kinouid=fk9020&sisetuid=13795,個人,増田 隆宣,増田　隆宣,"[歯科領域の一次診療, , ]","[埋伏歯抜歯, 顎関節症治療, ]",na,na,"[駐車場がある（契約駐車場も含む）, 院内処方, 車椅子利用者への配慮（施設内のバリアフリー化の実施）, 施設内における全面禁煙の実施, ]",na,na,"[病院との連携, 診療所との連携, ]",1.0|1|－,-|-|-,-|-|-,1.0|1|－,15.0,35.115241,138.880807,24,[歯科、小児歯科]
2023-09-16,増山歯科医院,沼津市添地町１２５,静岡県沼津市添地町125,,2023年01月12日,http://www.qq.pref.shizuoka.jp/qq22/qqport/kenmintop/detail/fk1102.php?kinouid=fk9020&sisetuid=13718,個人,増山 博也,増山　博也,"[歯科領域の一次診療, , ]",na,na,na,"[駐車場がある（契約駐車場も含む）, 院内処方, 視覚障害者への配慮（音声による情報の伝達）, 車椅子利用者への配慮（施設内のバリアフリー化の実施）, 施設内における全面禁煙の実施, ]",na,na,"[病院との連携, 薬局との連携, ]",1.0|1|－,-|-|-,-|-|-,na,19.5,35.101214,138.856393,24,[歯科、小児歯科]
2023-09-16,松永歯科,沼津市八幡町２－２,静岡県沼津市八幡町2-2,,2023年02月01日,http://www.qq.pref.shizuoka.jp/qq22/qqport/kenmintop/detail/fk1102.php?kinouid=fk9020&sisetuid=13744,個人,松永 章代,松永　章代,na,na,na,na,"[駐車場がある（契約駐車場も含む）, 施設内における全面禁煙の実施, ]",na,na,"[診療所との連携, 居宅介護支援事業所との連携, ]",1.0|1|－,-|-|-,-|-|-,1.0|1|－,10.0,35.099075,138.856449,24,[歯科、小児歯科]
2023-09-16,医療法人社団千富会,沼津市米山町２－３,静岡県沼津市米山町2-3,,2023年01月31日,http://www.qq.pref.shizuoka.jp/qq22/qqport/kenmintop/detail/fk1102.php?kinouid=fk9020&sisetuid=14525,個人,松本 浩一,松本　浩一,"[歯科領域の一次診療, 成人の歯科矯正治療, ]","[埋伏歯抜歯, 口唇、舌若しくは口腔粘膜の炎症又は外傷の治療, 顎関節症治療, , ]",na,na,"[駐車場がある（契約駐車場も含む）, 視覚障害者への配慮（音声による情報の伝達）, 聴覚障害者への配慮（施設内の情報の表示）, 車椅子利用者への配慮（施設内のバリアフリー化の実施）, 施設内における全面禁煙の実施, ]",na,na,"[病院との連携, 薬局との連携, 診療所との連携, ]",1.0|1|－,-|-|-,-|-|-,3.0|3|－,33.0,35.10497,138.862942,24,[歯科、矯正歯科、小児歯科、歯科口腔外科]
2023-09-16,光野歯科クリニック,沼津市下香貫大久保２２９５－１４,静岡県沼津市下香貫大久保2295-14,,2023年01月03日,http://www.qq.pref.shizuoka.jp/qq22/qqport/kenmintop/detail/fk1102.php?kinouid=fk9020&sisetuid=13758,個人,光野 衛,光野　衛,"[歯科領域の一次診療, 著しく歯科診療が困難な者, ]","[埋伏歯抜歯, 顎関節症治療, ]",na,na,"[駐車場がある（契約駐車場も含む）, 院内処方, 施設内における全面禁煙の実施, ]",na,na,"[病院との連携, 居宅介護支援事業所との連携, 診療所との連携, ]",1.0|1|－,-|-|-,-|-|-,3.0|1|2.0,34.5,35.071384,138.878531,24,[歯科、小児歯科]
2023-09-16,三津間歯科医院,沼津市大岡１７５６－３３,静岡県沼津市大岡1756-33,,2023年03月26日,http://www.qq.pref.shizuoka.jp/qq22/qqport/kenmintop/detail/fk1102.php?kinouid=fk9020&sisetuid=13725,個人,三津間 学,三津間　学,"[歯科領域の一次診療, , ]","[口唇、舌若しくは口腔粘膜の炎症又は外傷の治療, , ]",na,na,"[駐車場がある（契約駐車場も含む）, 院内処方, 視覚障害者への配慮（音声による情報の伝達）, 車椅子利用者への配慮（施設内のバリアフリー化の実施）, 施設内における全面禁煙の実施, 医療に関する相談窓口の設置, ]",na,na,"[病院との連携, 薬局との連携, 診療所との連携, ]",1.0|1|－,-|-|-,-|-|-,1.0|－|1.0,4.0,35.10527,138.873113,24,[歯科]
2023-09-16,ミノベ歯科医院,沼津市大手町３－３－２ 稲葉大手町ビル ３階,静岡県沼津市大手町三丁目3-2, 稲葉大手町ﾋﾞﾙ 3階,2023年01月12日,http://www.qq.pref.shizuoka.jp/qq22/qqport/kenmintop/detail/fk1102.php?kinouid=fk9020&sisetuid=13714,個人,美濃部 浩久,美濃部　浩久,"[歯科領域の一次診療, , ]","[埋伏歯抜歯, 顎関節症治療, ]",na,na,"[駐車場がある（契約駐車場も含む）, 院内処方, 施設内における全面禁煙の実施, ]",na,na,"[診療所との連携, 薬局との連携, ]",1.0|1|－,-|-|-,-|-|-,2.0|2|－,30.2,35.101436,138.860365,24,[歯科]
2023-09-16,宮内歯科医院,沼津市中沢田４６６,静岡県沼津市中沢田466,,2023年01月10日,http://www.qq.pref.shizuoka.jp/qq22/qqport/kenmintop/detail/fk1102.php?kinouid=fk9020&sisetuid=13789,個人,宮内 秀和,宮内　秀和,"[歯科領域の一次診療, , ]",na,na,na,"[駐車場がある（契約駐車場も含む）, 院内処方, 施設内における全面禁煙の実施, ]",na,na,na,1.0|1|－,-|-|-,-|-|-,－|－|－,10.0,35.122351,138.855225,24,[歯科]
2023-09-16,三宅歯科医院,沼津市玉江町７－３５,静岡県沼津市玉江町7-35,,2023年04月11日,http://www.qq.pref.shizuoka.jp/qq22/qqport/kenmintop/detail/fk1102.php?kinouid=fk9020&sisetuid=13764,個人,三宅 慈子,三宅　慈子,"[歯科領域の一次診療, , ]",na,na,na,"[駐車場がある（契約駐車場も含む）, 院内処方, 車椅子利用者への配慮（施設内のバリアフリー化の実施）, 施設内における全面禁煙の実施, ]",na,na,"[病院との連携, ]",1.0|1|－,-|-|-,-|-|-,na,12.0,35.08741,138.867726,25,[歯科、小児歯科]
2023-09-16,むらまつ歯科医院,沼津市高沢町４－２５,静岡県沼津市高沢町4-25,,2023年05月11日,http://www.qq.pref.shizuoka.jp/qq22/qqport/kenmintop/detail/fk1102.php?kinouid=fk9020&sisetuid=13832,個人,村松 里子,村松　里子,"[歯科領域の一次診療, , ]",na,na,na,"[駐車場がある（契約駐車場も含む）, 院内処方, 施設内における全面禁煙の実施, ]",na,na,"[病院との連携, ]",1.0|1|－,-|-|-,-|-|-,na,15.0,35.104658,138.854837,25,[歯科]
2023-09-16,ＫＬＴ川口メモリアル歯科,沼津市大手町３－２－２０ サンフォーレビル ３０１,静岡県沼津市大手町三丁目2-20, ｻﾝﾌｫ-ﾚﾋﾞﾙ 301,2023年01月06日,http://www.qq.pref.shizuoka.jp/qq22/qqport/kenmintop/detail/fk1102.php?kinouid=fk9020&sisetuid=13652,個人,川口 和子,川口　和子,"[歯科領域の一次診療, 成人の歯科矯正治療, ]","[埋伏歯抜歯, 顎関節症治療, ]",na,na,"[駐車場がある（契約駐車場も含む）, 院内処方, 車椅子利用者への配慮（施設内のバリアフリー化の実施）, 施設内における全面禁煙の実施, 医療に関する相談窓口の設置, ]",na,na,"[病院との連携, ]",2.5|2|0.5,-|-|-,-|-|-,2.0|2|－,11.0,35.101742,138.860642,25,[歯科、矯正歯科、小児歯科、歯科口腔外科]
2023-09-16,望月歯科医院,沼津市宮町１１,静岡県沼津市宮町11,,2023年01月05日,http://www.qq.pref.shizuoka.jp/qq22/qqport/kenmintop/detail/fk1102.php?kinouid=fk9020&sisetuid=13716,個人,望月 洋,望月　洋,"[歯科領域の一次診療, 著しく歯科診療が困難な者, ]","[埋伏歯抜歯, 顎関節症治療, ]",na,na,"[駐車場がある（契約駐車場も含む）, 車椅子利用者への配慮（施設内のバリアフリー化の実施）, 施設内における全面禁煙の実施, ]",na,na,"[病院との連携, 診療所との連携, ]",1.0|1|－,-|-|-,-|-|-,－|－|－,5.0,35.093339,138.857284,25,[歯科]
2023-09-16,もちづき歯科医院,沼津市大塚８７１－５,静岡県沼津市大塚871-5,,2022年12月24日,http://www.qq.pref.shizuoka.jp/qq22/qqport/kenmintop/detail/fk1102.php?kinouid=fk9020&sisetuid=14470,個人,望月 宣秀,望月　宣秀,"[歯科領域の一次診療, 成人の歯科矯正治療, ]","[埋伏歯抜歯, 顎関節症治療, ]",na,na,"[駐車場がある（契約駐車場も含む）, 院内処方, 施設内における全面禁煙の実施, ]",na,na,"[病院との連携, 居宅介護支援事業所との連携, ]",1.0|1|－,-|-|-,-|-|-,5.0|2|3.0,30.0,35.125822,138.80859,25,[歯科、小児歯科]
2023-09-16,森田歯科医院,沼津市戸田１５７４－１７,静岡県沼津市戸田1574-17,,2023年01月18日,http://www.qq.pref.shizuoka.jp/qq22/qqport/kenmintop/detail/fk1102.php?kinouid=fk9020&sisetuid=13620,個人,森田 憲治,森田　憲治,"[歯科領域の一次診療, 摂食機能障害の治療, 著しく歯科診療が困難な者, , ]","[埋伏歯抜歯, , ]",na,na,"[駐車場がある（契約駐車場も含む）, 院内処方, 車椅子利用者への配慮（施設内のバリアフリー化の実施）, 施設内における全面禁煙の実施, ]",na,na,"[病院との連携, 居宅介護支援事業所との連携, 訪問看護ステーションとの連携, ]",1.0|1|－,-|-|-,-|-|-,2.0|1|1.0,7.4,34.970644,138.792849,25,[歯科、小児歯科]
2023-09-16,矢田歯科医院,沼津市御幸町１０－２７,静岡県沼津市御幸町10-27,,2023年01月30日,http://www.qq.pref.shizuoka.jp/qq22/qqport/kenmintop/detail/fk1102.php?kinouid=fk9020&sisetuid=14471,個人,矢田 誠,矢田誠,"[歯科領域の一次診療, 著しく歯科診療が困難な者, 成人の歯科矯正治療, , ]",na,na,na,"[駐車場がある（契約駐車場も含む）, 院内処方, 車椅子利用者への配慮（施設内のバリアフリー化の実施）, 車椅子対応トイレ, 施設内における全面禁煙の実施, 喫煙室の設置, ]",na,na,"[病院との連携, 診療所との連携, ]",6.0|2|4.0,-|-|-,-|-|-,3.0|2|1.0,50.0,35.096215,138.867226,25,[歯科、矯正歯科、小児歯科]
2023-09-16,医療法人社団　久正会　矢部歯科医院香貫診療所,沼津市下香貫馬場４８７－６,静岡県沼津市下香貫馬場487-6,,2023年03月24日,http://www.qq.pref.shizuoka.jp/qq22/qqport/kenmintop/detail/fk1102.php?kinouid=fk9020&sisetuid=13820,個人,矢部 久雄,福本　明倫,"[歯科領域の一次診療, 成人の歯科矯正治療, ]","[埋伏歯抜歯, 口唇、舌若しくは口腔粘膜の炎症又は外傷の治療, 顎関節症治療, , ]",na,na,"[駐車場がある（契約駐車場も含む）, 院内処方, 施設内における全面禁煙の実施, ]",na,na,"[病院との連携, 診療所との連携, ]",1.0|1|－,-|-|-,-|-|-,1.0|1|－,20.0,35.077578,138.873254,25,[歯科、矯正歯科、小児歯科]
2023-09-16,山田歯科医院,沼津市戸田５２２,静岡県沼津市戸田522,,2023年05月10日,http://www.qq.pref.shizuoka.jp/qq22/qqport/kenmintop/detail/fk1102.php?kinouid=fk9020&sisetuid=13626,個人,山田 英輝,山田　英輝,"[歯科領域の一次診療, , ]","[埋伏歯抜歯, , ]",na,na,"[駐車場がある（契約駐車場も含む）, 院内処方, 施設内における全面禁煙の実施, ]",na,na,na,1.0|1|－,-|-|-,-|-|-,1.0|1|－,10.3,34.969671,138.7776,25,[歯科]
2023-09-16,ヤマダデンタルオフィス,沼津市大手町１－１－３ パレットビル９Ｆ,静岡県沼津市大手町一丁目1-3, ﾊﾟﾚｯﾄﾋﾞﾙ9f,2023年01月11日,http://www.qq.pref.shizuoka.jp/qq22/qqport/kenmintop/detail/fk1102.php?kinouid=fk9020&sisetuid=14478,個人,山田 浩史,山田　浩史,"[歯科領域の一次診療, , ]",na,na,na,"[駐車場がある（契約駐車場も含む）, 車椅子利用者への配慮（施設内のバリアフリー化の実施）, 施設内における全面禁煙の実施, ]",na,na,"[病院との連携, ]",1.0|1|－,-|-|-,-|-|-,1.0|－|1.0,10.0,35.10227,138.860698,25,[歯科]
2023-09-16,山本矯正歯科,沼津市上土町４３－２,静岡県沼津市上土町43-2,,2023年01月09日,http://www.qq.pref.shizuoka.jp/qq22/qqport/kenmintop/detail/fk1102.php?kinouid=fk9020&sisetuid=14493,個人,山本 真,山本　真,"[成人の歯科矯正治療, 唇顎口蓋裂の歯科矯正治療, ]",na,na,na,"[施設内における全面禁煙の実施, ]",na,na,na,1.0|1|－,-|-|-,-|-|-,－|－|－,9.6,35.096937,138.857893,26,[矯正歯科]
2023-09-16,山本歯科,沼津市上土町４３－２,静岡県沼津市上土町43-2,,2023年01月26日,http://www.qq.pref.shizuoka.jp/qq22/qqport/kenmintop/detail/fk1102.php?kinouid=fk9020&sisetuid=13638,個人,山本 龍樹,山本　龍樹,"[歯科領域の一次診療, , ]","[埋伏歯抜歯, , ]",na,na,"[院内処方, 施設内における全面禁煙の実施, 医療に関する相談窓口の設置, ]",na,na,"[病院との連携, 薬局との連携, 診療所との連携, ]",1.0|1|－,-|-|-,-|-|-,2.0|2|－,4.5,35.096965,138.857837,26,[歯科]
2023-09-16,幸歯科医院,沼津市下香貫宮脇３１４－３,静岡県沼津市下香貫宮脇314-3,,2023年05月26日,http://www.qq.pref.shizuoka.jp/qq22/qqport/kenmintop/detail/fk1102.php?kinouid=fk9020&sisetuid=50191,個人,久保 幸正,久保　幸正,na,na,na,na,[],na,na,na,na,-|-|-,-|-|-,na,na,35.085305,138.870695,26,[歯科、小児歯科、矯正歯科]
2023-09-16,ライオン歯科,沼津市共栄町２０－６,静岡県沼津市共栄町20-6,,2023年01月31日,http://www.qq.pref.shizuoka.jp/qq22/qqport/kenmintop/detail/fk1102.php?kinouid=fk9020&sisetuid=14488,医療法人,社団 顕正会,中村　光宏,"[歯科領域の一次診療, 成人の歯科矯正治療, ]",na,na,na,"[駐車場がある（契約駐車場も含む）, 院内処方, 車椅子利用者への配慮（施設内のバリアフリー化の実施）, 車椅子対応トイレ, 施設内における全面禁煙の実施, ]",na,na,"[病院との連携, 居宅介護支援事業所との連携, 診療所との連携, ]",6.0|1|5.0,-|-|-,-|-|-,7.0|1|6.0,32.9,35.119657,138.871696,26,[歯科、矯正歯科]
2023-09-16,れいこ歯科,沼津市高沢町９－１９,静岡県沼津市高沢町9-19,,2023年03月29日,http://www.qq.pref.shizuoka.jp/qq22/qqport/kenmintop/detail/fk1102.php?kinouid=fk9020&sisetuid=14507,個人,横井麗子,横井　麗子,"[歯科領域の一次診療, 摂食機能障害の治療, 著しく歯科診療が困難な者, , ]","[埋伏歯抜歯, 口唇、舌若しくは口腔粘膜の炎症又は外傷の治療, 顎関節症治療, , ]",na,na,"[駐車場がある（契約駐車場も含む）, 院内処方, 車椅子利用者への配慮（施設内のバリアフリー化の実施）, 車椅子対応トイレ, 施設内における全面禁煙の実施, ]",na,na,"[病院との連携, 居宅介護支援事業所との連携, 診療所との連携, ]",2.0|1|1.0,-|-|-,-|-|-,5.0|－|5.0,29.0,35.105936,138.855337,26,[歯科、歯科口腔外科、小児歯科]
2023-09-16,渡辺歯科医院,沼津市花園町５－３,静岡県沼津市花園町5-3,,2022年12月22日,http://www.qq.pref.shizuoka.jp/qq22/qqport/kenmintop/detail/fk1102.php?kinouid=fk9020&sisetuid=13726,個人,渡辺 慎也,渡辺　慎也,"[歯科領域の一次診療, , ]","[埋伏歯抜歯, , ]",na,na,"[駐車場がある（契約駐車場も含む）, 院内処方, 施設内における全面禁煙の実施, ]",na,na,"[病院との連携, ]",1.0|1|－,-|-|-,-|-|-,na,12.0,35.123268,138.869224,26,[歯科]
2023-09-16,わたなべ歯科医院,沼津市志下４３０－１,静岡県沼津市志下430-1,,2023年01月13日,http://www.qq.pref.shizuoka.jp/qq22/qqport/kenmintop/detail/fk1102.php?kinouid=fk9020&sisetuid=13737,個人,渡辺 清一,渡辺　清一,"[歯科領域の一次診療, 成人の歯科矯正治療, ]",na,na,na,"[駐車場がある（契約駐車場も含む）, 院内処方, 施設内における全面禁煙の実施, ]",na,na,"[病院との連携, 居宅介護支援事業所との連携, ]",1.0|1|－,-|-|-,-|-|-,1.0|1|－,13.5,35.061608,138.880643,26,[歯科]
2023-09-16,わたなべ歯科クリニック,沼津市松長７８０－１,静岡県沼津市松長780-1,,2022年12月30日,http://www.qq.pref.shizuoka.jp/qq22/qqport/kenmintop/detail/fk1102.php?kinouid=fk9020&sisetuid=14511,個人,渡邉 洋行,渡邉洋行,"[歯科領域の一次診療, , ]","[埋伏歯抜歯, 顎関節症治療, ]",na,na,"[駐車場がある（契約駐車場も含む）, 院内処方, 車椅子利用者への配慮（施設内のバリアフリー化の実施）, 車椅子対応トイレ, ]",na,na,"[病院との連携, ]",1.0|1|－,-|-|-,-|-|-,1.0|1|－,24.0,35.119517,138.825395,26,[歯科、小児歯科]
2023-09-16,わたり歯科医院,沼津市大岡３８０９－５,静岡県沼津市大岡3809-5,,2022年12月26日,http://www.qq.pref.shizuoka.jp/qq22/qqport/kenmintop/detail/fk1102.php?kinouid=fk9020&sisetuid=13759,個人,渡辺正人,渡邉　正人,"[歯科領域の一次診療, , ]","[埋伏歯抜歯, 顎関節症治療, ]",na,na,"[駐車場がある（契約駐車場も含む）, 院内処方, 施設内における全面禁煙の実施, 医療に関する相談窓口の設置, ]",na,na,"[病院との連携, 診療所との連携, ]",1.0|1|－,-|-|-,-|-|-,1.0|－|1.0,25.5,35.12942,138.886404,26,[歯科]
2023-09-16,医療法人矯仁会浅井歯科診療所,三島市本町２－９,静岡県三島市本町2-9,,2022年12月25日,http://www.qq.pref.shizuoka.jp/qq22/qqport/kenmintop/detail/fk1102.php?kinouid=fk9020&sisetuid=13674,医療法人,社団矯仁会,辻　吉純,"[歯科領域の一次診療, , ]",na,na,na,"[駐車場がある（契約駐車場も含む）, 院内処方, 車椅子利用者への配慮（施設内のバリアフリー化の実施）, 施設内における全面禁煙の実施, ]",na,na,na,2.0|2|－,-|-|-,-|-|-,4.0|4|－,32.4,35.120296,138.914498,26,[歯科]
2023-09-16,Ｓ．Ｄ．Ｃさいとう歯科クリニック,三島市谷田夏梅木６６４－５,静岡県三島市谷田夏梅木664-5,,2023年05月24日,http://www.qq.pref.shizuoka.jp/qq22/qqport/kenmintop/detail/fk1102.php?kinouid=fk9020&sisetuid=13809,個人,斉藤 彰久,斉藤　彰久,"[歯科領域の一次診療, 著しく歯科診療が困難な者, 成人の歯科矯正治療, , ]","[埋伏歯抜歯, 口唇、舌若しくは口腔粘膜の炎症又は外傷の治療, 顎関節症治療, , ]",na,na,"[駐車場がある（契約駐車場も含む）, 院内処方, 車椅子利用者への配慮（施設内のバリアフリー化の実施）, 車椅子対応トイレ, 喫煙室の設置, ]",na,na,"[病院との連携, 診療所との連携, ]",1.0|1|－,-|-|-,-|-|-,2.0|2|－,27.5,35.107076,138.937358,27,[歯科]
2023-09-16,遠藤歯科医院,三島市佐野１９１,静岡県三島市佐野191,,2022年12月21日,http://www.qq.pref.shizuoka.jp/qq22/qqport/kenmintop/detail/fk1102.php?kinouid=fk9020&sisetuid=13750,個人,遠藤 忠彦,遠藤　忠彦,"[歯科領域の一次診療, , ]",na,na,na,"[駐車場がある（契約駐車場も含む）, 院内処方, 視覚障害者への配慮（音声による情報の伝達）, 車椅子利用者への配慮（施設内のバリアフリー化の実施）, 施設内における全面禁煙の実施, ]",na,na,"[病院との連携, 診療所との連携, ]",1.0|1|－,-|-|-,-|-|-,2.0|2|－,21.2,35.168625,138.922551,27,[歯科]
2023-09-16,小野歯科医院,三島市加屋町３－１５,静岡県三島市加屋町3-15,,2023年01月04日,http://www.qq.pref.shizuoka.jp/qq22/qqport/kenmintop/detail/fk1102.php?kinouid=fk9020&sisetuid=13678,個人,小野 毅,小野　毅,"[歯科領域の一次診療, , ]","[埋伏歯抜歯, , ]",na,na,"[駐車場がある（契約駐車場も含む）, 院内処方, 車椅子利用者への配慮（施設内のバリアフリー化の実施）, 施設内における全面禁煙の実施, ]",na,na,"[病院との連携, 診療所との連携, ]",2.0|1|1.0,-|-|-,-|-|-,－|－|－,13.0,35.116074,138.904388,27,[歯科]
2023-09-16,かげしま歯科,三島市谷田字並木２９６－１９,静岡県三島市谷田字並木296-19,,2023年01月08日,http://www.qq.pref.shizuoka.jp/qq22/qqport/kenmintop/detail/fk1102.php?kinouid=fk9020&sisetuid=13689,個人,影島 千久,影島　千久,"[歯科領域の一次診療, , ]",na,na,na,"[駐車場がある（契約駐車場も含む）, 院内処方, 施設内における全面禁煙の実施, ]",na,na,na,1.0|1|－,-|-|-,-|-|-,－|－|－,20.5,35.112437,138.93358,27,[歯科]
